{ "_id" : { "$oid" : "535822efeb98f7a8b4b022f0" }, "name" : "Canarsie Mental Health Clinic", "uuid" : "357622699", "active" : true, "coordinates" : [ -73.9136111, 40.6577778 ], "properties" : { "sector" : "health", "type" : "clinic", "visits" : 1, "photoUrls" : [] }, "updatedAt" : { "$date" : "2014-04-23T20:30:39.693+0000" }, "createdAt" : { "$date" : "2014-04-23T20:30:39.692+0000" }, "__v" : 0 }
{ "_id" : { "$oid" : "535822efeb98f7a8b4b022f1" }, "name" : "Joseph E Ray Arron Clinic", "uuid" : "250174703", "active" : true, "coordinates" : [ -73.9125844152172, 40.6550362 ], "properties" : { "sector" : "health", "type" : "clinic", "visits" : 0, "photoUrls" : [] }, "updatedAt" : { "$date" : "2014-04-23T20:30:39.698+0000" }, "createdAt" : { "$date" : "2014-04-23T20:30:39.698+0000" }, "__v" : 0 }
{ "_id" : { "$oid" : "535822efeb98f7a8b4b022f2" }, "name" : "William A White Clinic", "uuid" : "250147630", "active" : true, "coordinates" : [ -73.93997196431999, 40.6572264 ], "properties" : { "sector" : "health", "type" : "clinic", "visits" : 0, "photoUrls" : [] }, "updatedAt" : { "$date" : "2014-04-23T20:30:39.698+0000" }, "createdAt" : { "$date" : "2014-04-23T20:30:39.698+0000" }, "__v" : 0 }
{ "_id" : { "$oid" : "535822efeb98f7a8b4b022f3" }, "name" : "United States Naval Clinic", "uuid" : "357594124", "active" : true, "coordinates" : [ -73.9709719, 40.6967695 ], "properties" : { "sector" : "health", "type" : "clinic", "visits" : 0, "photoUrls" : [] }, "updatedAt" : { "$date" : "2014-04-23T20:30:39.698+0000" }, "createdAt" : { "$date" : "2014-04-23T20:30:39.698+0000" }, "__v" : 0 }
{ "_id" : { "$oid" : "535822efeb98f7a8b4b022f4" }, "name" : "Governor Juan Ponce De Leon Extension Clinic", "uuid" : "357648647", "active" : true, "coordinates" : [ -73.8722222, 40.8305556 ], "properties" : { "sector" : "health", "type" : "clinic", "visits" : 4, "photoUrls" : [] }, "updatedAt" : { "$date" : "2014-04-23T20:30:39.699+0000" }, "createdAt" : { "$date" : "2014-04-23T20:30:39.699+0000" }, "__v" : 0 }
{ "_id" : { "$oid" : "535822efeb98f7a8b4b022f5" }, "name" : "Vanderbilt Clinic / College of Dental Medicine", "uuid" : "3660704", "active" : true, "coordinates" : [ -73.9407040193926, 40.8409991 ], "properties" : { "sector" : "health", "type" : "clinic", "visits" : 2, "photoUrls" : [] }, "updatedAt" : { "$date" : "2014-04-23T20:30:39.699+0000" }, "createdAt" : { "$date" : "2014-04-23T20:30:39.699+0000" }, "__v" : 0 }
{ "_id" : { "$oid" : "535823222b7a61adb4ed67c0" }, "name" : "Bellevue Hospital Center", "uuid" : "150365209", "active" : true, "coordinates" : [ -73.9751602734239, 40.73913545 ], "properties" : { "sector" : "health", "type" : "clinic", "visits" : 8, "photoUrls" : [] }, "updatedAt" : { "$date" : "2014-04-23T20:31:30.181+0000" }, "createdAt" : { "$date" : "2014-04-23T20:31:30.180+0000" }, "__v" : 0 }
{ "_id" : { "$oid" : "535823222b7a61adb4ed67c1" }, "name" : "Lenox Hill Hospital", "uuid" : "357568917", "active" : true, "coordinates" : [ -73.9616613, 40.7732745 ], "properties" : { "sector" : "health", "type" : "clinic", "visits" : 13, "photoUrls" : [] }, "updatedAt" : { "$date" : "2014-07-14T20:57:51.000+0000" }, "createdAt" : { "$date" : "2014-04-23T20:31:30.186+0000" }, "__v" : 0 }
{ "_id" : { "$oid" : "535823222b7a61adb4ed67c2" }, "name" : "Memorial Sloan - Kettering Cancer Center", "uuid" : "357607743", "active" : true, "coordinates" : [ -73.9561118, 40.7640249 ], "properties" : { "sector" : "health", "type" : "clinic", "visits" : 9, "photoUrls" : [] }, "updatedAt" : { "$date" : "2014-04-23T20:31:30.186+0000" }, "createdAt" : { "$date" : "2014-04-23T20:31:30.186+0000" }, "__v" : 0 }
{ "_id" : { "$oid" : "535823222b7a61adb4ed67c3" }, "name" : "Manhattan Eye Ear and Throat Hospital", "uuid" : "357642750", "active" : true, "coordinates" : [ -73.9635141, 40.764316 ], "properties" : { "sector" : "health", "type" : "clinic", "visits" : 0, "photoUrls" : [] }, "updatedAt" : { "$date" : "2014-04-23T20:31:30.186+0000" }, "createdAt" : { "$date" : "2014-04-23T20:31:30.186+0000" }, "__v" : 0 }
{ "_id" : { "$oid" : "535823222b7a61adb4ed67c4" }, "name" : "New York University Langone Medical Center", "uuid" : "150368085", "active" : true, "coordinates" : [ -73.97376315183099, 40.7420286 ], "properties" : { "sector" : "health", "type" : "clinic", "visits" : 5, "photoUrls" : [] }, "updatedAt" : { "$date" : "2014-04-23T20:31:30.187+0000" }, "createdAt" : { "$date" : "2014-04-23T20:31:30.187+0000" }, "__v" : 0 }
{ "_id" : { "$oid" : "535823222b7a61adb4ed67c5" }, "name" : "Cabrini Medical Center", "uuid" : "357607594", "active" : true, "coordinates" : [ -73.98354, 40.73614 ], "properties" : { "sector" : "health", "type" : "clinic", "visits" : 9, "photoUrls" : [] }, "updatedAt" : { "$date" : "2014-04-23T20:31:30.187+0000" }, "createdAt" : { "$date" : "2014-04-23T20:31:30.187+0000" }, "__v" : 0 }
{ "_id" : { "$oid" : "535823222b7a61adb4ed67c6" }, "name" : "Hoboken University Medical Center", "uuid" : "296766358", "active" : true, "coordinates" : [ -74.0337646, 40.741063 ], "properties" : { "sector" : "health", "type" : "clinic", "visits" : 2, "photoUrls" : [] }, "updatedAt" : { "$date" : "2014-04-23T20:31:30.188+0000" }, "createdAt" : { "$date" : "2014-04-23T20:31:30.188+0000" }, "__v" : 0 }
{ "_id" : { "$oid" : "535823222b7a61adb4ed67c7" }, "name" : "Brooklyn Hospital Center", "uuid" : "250366061", "active" : true, "coordinates" : [ -73.9779439015598, 40.6905807 ], "properties" : { "sector" : "health", "type" : "clinic", "visits" : 8, "photoUrls" : [] }, "updatedAt" : { "$date" : "2014-04-23T20:31:30.188+0000" }, "createdAt" : { "$date" : "2014-04-23T20:31:30.188+0000" }, "__v" : 0 }
{ "_id" : { "$oid" : "535823222b7a61adb4ed67c8" }, "name" : "Hospital for Joint Diseases - New York University", "uuid" : "357642741", "active" : true, "coordinates" : [ -73.98291999999999, 40.73431 ], "properties" : { "sector" : "health", "type" : "clinic", "visits" : 4, "photoUrls" : [] }, "updatedAt" : { "$date" : "2014-04-23T20:31:30.188+0000" }, "createdAt" : { "$date" : "2014-04-23T20:31:30.188+0000" }, "__v" : 0 }
{ "_id" : { "$oid" : "535823222b7a61adb4ed67c9" }, "name" : "Beekman Street Hospital (historical)", "uuid" : "357609895", "active" : true, "coordinates" : [ -74.00319500000001, 40.7078803 ], "properties" : { "sector" : "health", "type" : "clinic", "visits" : 6, "photoUrls" : [] }, "updatedAt" : { "$date" : "2014-04-23T20:31:30.189+0000" }, "createdAt" : { "$date" : "2014-04-23T20:31:30.189+0000" }, "__v" : 0 }
{ "_id" : { "$oid" : "535823222b7a61adb4ed67ca" }, "name" : "Greenpoint Hospital (historical)", "uuid" : "48611434", "active" : true, "coordinates" : [ -73.9390999891847, 40.716728 ], "properties" : { "sector" : "health", "type" : "clinic", "visits" : 7, "photoUrls" : [] }, "updatedAt" : { "$date" : "2014-04-23T20:31:30.189+0000" }, "createdAt" : { "$date" : "2014-04-23T20:31:30.189+0000" }, "__v" : 0 }
{ "_id" : { "$oid" : "535823222b7a61adb4ed67cb" }, "name" : "William J Syms Operating Theater Roosevelt Hospital (historical)", "uuid" : "357609910", "active" : true, "coordinates" : [ -73.9852381, 40.7692012 ], "properties" : { "sector" : "health", "type" : "clinic", "visits" : 1, "photoUrls" : [] }, "updatedAt" : { "$date" : "2014-04-23T20:31:30.189+0000" }, "createdAt" : { "$date" : "2014-04-23T20:31:30.189+0000" }, "__v" : 0 }
{ "_id" : { "$oid" : "535823222b7a61adb4ed67cc" }, "name" : "Cornerstone Medical Arts Hospital", "uuid" : "357642732", "active" : true, "coordinates" : [ -73.9754995, 40.7639359 ], "properties" : { "sector" : "health", "type" : "clinic", "visits" : 8, "photoUrls" : [] }, "updatedAt" : { "$date" : "2014-04-23T20:31:30.190+0000" }, "createdAt" : { "$date" : "2014-04-23T20:31:30.190+0000" }, "__v" : 0 }
{ "_id" : { "$oid" : "535823222b7a61adb4ed67cd" }, "name" : "Ewing Memorial Hospital", "uuid" : "357558861", "active" : true, "coordinates" : [ -73.95707830000001, 40.7645704 ], "properties" : { "sector" : "health", "type" : "clinic", "visits" : 8, "photoUrls" : [] }, "updatedAt" : { "$date" : "2014-04-23T20:31:30.190+0000" }, "createdAt" : { "$date" : "2014-04-23T20:31:30.190+0000" }, "__v" : 0 }
{ "_id" : { "$oid" : "535823222b7a61adb4ed67ce" }, "name" : "New York Foundling Hospital", "uuid" : "357620365", "active" : true, "coordinates" : [ -73.9954547, 40.7388841 ], "properties" : { "sector" : "health", "type" : "clinic", "visits" : 7, "photoUrls" : [] }, "updatedAt" : { "$date" : "2014-04-23T20:31:30.190+0000" }, "createdAt" : { "$date" : "2014-04-23T20:31:30.190+0000" }, "__v" : 0 }
{ "_id" : { "$oid" : "535823222b7a61adb4ed67cf" }, "name" : "Bernstein Pavilion Beth Israel Hospital", "uuid" : "357620414", "active" : true, "coordinates" : [ -73.9836111, 40.7327778 ], "properties" : { "sector" : "health", "type" : "clinic", "visits" : 1, "photoUrls" : [] }, "updatedAt" : { "$date" : "2014-04-23T20:31:30.191+0000" }, "createdAt" : { "$date" : "2014-04-23T20:31:30.191+0000" }, "__v" : 0 }
{ "_id" : { "$oid" : "535823222b7a61adb4ed67d0" }, "name" : "Long Island College Hospital", "uuid" : "248138880", "active" : true, "coordinates" : [ -73.997609392614, 40.68999675 ], "properties" : { "sector" : "health", "type" : "clinic", "visits" : 3, "photoUrls" : [] }, "updatedAt" : { "$date" : "2014-04-23T20:31:30.191+0000" }, "createdAt" : { "$date" : "2014-04-23T20:31:30.191+0000" }, "__v" : 0 }
{ "_id" : { "$oid" : "535823222b7a61adb4ed67d1" }, "name" : "Rockefeller University Hospital", "uuid" : "357642735", "active" : true, "coordinates" : [ -73.95536060000001, 40.7620381 ], "properties" : { "sector" : "health", "type" : "clinic", "visits" : 6, "photoUrls" : [] }, "updatedAt" : { "$date" : "2014-04-23T20:31:30.191+0000" }, "createdAt" : { "$date" : "2014-04-23T20:31:30.191+0000" }, "__v" : 0 }
{ "_id" : { "$oid" : "535823222b7a61adb4ed67d2" }, "name" : "New York Presbyterian Hospital", "uuid" : "357573246", "active" : true, "coordinates" : [ -73.9550117, 40.7643775 ], "properties" : { "sector" : "health", "type" : "clinic", "visits" : 1, "photoUrls" : [] }, "updatedAt" : { "$date" : "2014-04-23T20:31:30.192+0000" }, "createdAt" : { "$date" : "2014-04-23T20:31:30.192+0000" }, "__v" : 0 }
{ "_id" : { "$oid" : "535823222b7a61adb4ed67d3" }, "name" : "Hospital for Special Surgery", "uuid" : "266867831", "active" : true, "coordinates" : [ -73.9540881168215, 40.7656963 ], "properties" : { "sector" : "health", "type" : "clinic", "visits" : 2, "photoUrls" : [] }, "updatedAt" : { "$date" : "2014-04-23T20:31:30.192+0000" }, "createdAt" : { "$date" : "2014-04-23T20:31:30.192+0000" }, "__v" : 0 }
{ "_id" : { "$oid" : "535823222b7a61adb4ed67d4" }, "name" : "Polyclinic Hospital (historical)", "uuid" : "357577677", "active" : true, "coordinates" : [ -73.9876391, 40.7634348 ], "properties" : { "sector" : "health", "type" : "clinic", "visits" : 7, "photoUrls" : [] }, "updatedAt" : { "$date" : "2014-04-23T20:31:30.192+0000" }, "createdAt" : { "$date" : "2014-04-23T20:31:30.192+0000" }, "__v" : 0 }
{ "_id" : { "$oid" : "535823222b7a61adb4ed67d5" }, "name" : "Long Island College Hospital", "uuid" : "245132465", "active" : true, "coordinates" : [ -73.9974916609426, 40.69058285 ], "properties" : { "sector" : "health", "type" : "clinic", "visits" : 5, "photoUrls" : [] }, "updatedAt" : { "$date" : "2014-04-23T20:31:30.192+0000" }, "createdAt" : { "$date" : "2014-04-23T20:31:30.192+0000" }, "__v" : 0 }
{ "_id" : { "$oid" : "535823222b7a61adb4ed67d6" }, "name" : "Greenpoint Hospital ( Historical)", "uuid" : "2772503282", "active" : true, "coordinates" : [ -73.9399045, 40.7166363 ], "properties" : { "sector" : "health", "type" : "clinic", "visits" : 1, "photoUrls" : [] }, "updatedAt" : { "$date" : "2014-04-23T20:31:30.193+0000" }, "createdAt" : { "$date" : "2014-04-23T20:31:30.193+0000" }, "__v" : 0 }
{ "_id" : { "$oid" : "535823222b7a61adb4ed67d7" }, "name" : "Stuyvesant Polyclinic Hospital", "uuid" : "241833274", "active" : true, "coordinates" : [ -73.9885632252296, 40.72836175 ], "properties" : { "sector" : "health", "type" : "clinic", "visits" : 8, "photoUrls" : [] }, "updatedAt" : { "$date" : "2014-04-23T20:31:30.193+0000" }, "createdAt" : { "$date" : "2014-04-23T20:31:30.193+0000" }, "__v" : 0 }
{ "_id" : { "$oid" : "535823222b7a61adb4ed67d8" }, "name" : "Lying-In Hospital (historical)", "uuid" : "357609907", "active" : true, "coordinates" : [ -73.98375009999999, 40.7345464 ], "properties" : { "sector" : "health", "type" : "clinic", "visits" : 4, "photoUrls" : [] }, "updatedAt" : { "$date" : "2014-04-23T20:31:30.193+0000" }, "createdAt" : { "$date" : "2014-04-23T20:31:30.193+0000" }, "__v" : 0 }
{ "_id" : { "$oid" : "535823222b7a61adb4ed67d9" }, "name" : "Saint Johns Hospital (historical)", "uuid" : "357585146", "active" : true, "coordinates" : [ -73.9443045, 40.7470463 ], "properties" : { "sector" : "health", "type" : "clinic", "visits" : 2, "photoUrls" : [] }, "updatedAt" : { "$date" : "2014-04-23T20:31:30.193+0000" }, "createdAt" : { "$date" : "2014-04-23T20:31:30.193+0000" }, "__v" : 0 }
{ "_id" : { "$oid" : "535823222b7a61adb4ed67da" }, "name" : "hospital", "uuid" : "37183305", "active" : true, "coordinates" : [ -73.96487525000001, 40.6987354 ], "properties" : { "sector" : "health", "type" : "clinic", "visits" : 8, "photoUrls" : [] }, "updatedAt" : { "$date" : "2014-04-23T20:31:30.193+0000" }, "createdAt" : { "$date" : "2014-04-23T20:31:30.193+0000" }, "__v" : 0 }
{ "_id" : { "$oid" : "535823222b7a61adb4ed67db" }, "name" : "Brooklyn Children and Youth Day Treatment Center", "uuid" : "250965684", "active" : true, "coordinates" : [ -73.97982438713839, 40.6882362 ], "properties" : { "sector" : "health", "type" : "clinic", "visits" : 8, "photoUrls" : [] }, "updatedAt" : { "$date" : "2014-04-23T20:31:30.193+0000" }, "createdAt" : { "$date" : "2014-04-23T20:31:30.193+0000" }, "__v" : 0 }
{ "_id" : { "$oid" : "535823222b7a61adb4ed67dc" }, "name" : "United States Naval Clinic", "uuid" : "357594124", "active" : true, "coordinates" : [ -73.9709719, 40.6967695 ], "properties" : { "sector" : "health", "type" : "clinic", "visits" : 4, "photoUrls" : [] }, "updatedAt" : { "$date" : "2014-04-23T20:31:30.194+0000" }, "createdAt" : { "$date" : "2014-04-23T20:31:30.194+0000" }, "__v" : 0 }
{ "_id" : { "$oid" : "535823222b7a61adb4ed67dd" }, "name" : "Cobble Hill Health Center", "uuid" : "248138657", "active" : true, "coordinates" : [ -73.99796272822729, 40.6885497 ], "properties" : { "sector" : "health", "type" : "clinic", "visits" : 2, "photoUrls" : [] }, "updatedAt" : { "$date" : "2014-04-23T20:31:30.194+0000" }, "createdAt" : { "$date" : "2014-04-23T20:31:30.194+0000" }, "__v" : 0 }
{ "_id" : { "$oid" : "535823222b7a61adb4ed67de" }, "name" : "Edward and Theresa O'Toole Medical Services Building", "uuid" : "357620244", "active" : true, "coordinates" : [ -74.0008333, 40.7377778 ], "properties" : { "sector" : "health", "type" : "clinic", "visits" : 6, "photoUrls" : [] }, "updatedAt" : { "$date" : "2014-04-23T20:31:30.194+0000" }, "createdAt" : { "$date" : "2014-04-23T20:31:30.194+0000" }, "__v" : 0 }
{ "_id" : { "$oid" : "535823222b7a61adb4ed67df" }, "name" : "Mount Sinai Dispensary (historical)", "uuid" : "357620711", "active" : true, "coordinates" : [ -73.9641697, 40.7672475 ], "properties" : { "sector" : "health", "type" : "clinic", "visits" : 1, "photoUrls" : [] }, "updatedAt" : { "$date" : "2014-04-23T20:31:30.195+0000" }, "createdAt" : { "$date" : "2014-04-23T20:31:30.195+0000" }, "__v" : 0 }
{ "_id" : { "$oid" : "535823222b7a61adb4ed67e0" }, "name" : "Beth Israel Medical Center", "uuid" : "249663058", "active" : true, "coordinates" : [ -73.9831691414426, 40.73291635 ], "properties" : { "sector" : "health", "type" : "clinic", "visits" : 1, "photoUrls" : [] }, "updatedAt" : { "$date" : "2014-04-23T20:31:30.195+0000" }, "createdAt" : { "$date" : "2014-04-23T20:31:30.195+0000" }, "__v" : 0 }
{ "_id" : { "$oid" : "535823222b7a61adb4ed67e1" }, "name" : "West 29th Street", "uuid" : "1129613919", "active" : true, "coordinates" : [ -73.9939992, 40.7481928 ], "properties" : { "sector" : "health", "type" : "clinic", "visits" : 6, "photoUrls" : [] }, "updatedAt" : { "$date" : "2014-04-23T20:31:30.195+0000" }, "createdAt" : { "$date" : "2014-04-23T20:31:30.195+0000" }, "__v" : 0 }
{ "_id" : { "$oid" : "535823222b7a61adb4ed67e2" }, "name" : "NUY Outpatient Surgery Center", "uuid" : "1581175993", "active" : true, "coordinates" : [ -73.9717921, 40.7464515 ], "properties" : { "sector" : "health", "type" : "clinic", "visits" : 5, "photoUrls" : [] }, "updatedAt" : { "$date" : "2014-04-23T20:31:30.195+0000" }, "createdAt" : { "$date" : "2014-04-23T20:31:30.195+0000" }, "__v" : 0 }
{ "_id" : { "$oid" : "535823222b7a61adb4ed67e3" }, "name" : "Beth Israel Medical Center - Phillips Ambulatory Care Center", "uuid" : "357607586", "active" : true, "coordinates" : [ -73.9897658, 40.7348271 ], "properties" : { "sector" : "health", "type" : "clinic", "visits" : 5, "photoUrls" : [] }, "updatedAt" : { "$date" : "2014-04-23T20:31:30.195+0000" }, "createdAt" : { "$date" : "2014-04-23T20:31:30.195+0000" }, "__v" : 0 }
{ "_id" : { "$oid" : "535823222b7a61adb4ed67e4" }, "name" : "New York Eye and Ear Infirmary", "uuid" : "357642745", "active" : true, "coordinates" : [ -73.98452090000001, 40.7317629 ], "properties" : { "sector" : "health", "type" : "clinic", "visits" : 1, "photoUrls" : [] }, "updatedAt" : { "$date" : "2014-04-23T20:31:30.195+0000" }, "createdAt" : { "$date" : "2014-04-23T20:31:30.195+0000" }, "__v" : 0 }
{ "_id" : { "$oid" : "535823222b7a61adb4ed67e5" }, "name" : "Sidney Hillman Health Center", "uuid" : "357620384", "active" : true, "coordinates" : [ -73.99275609999999, 40.7362964 ], "properties" : { "sector" : "health", "type" : "clinic", "visits" : 9, "photoUrls" : [] }, "updatedAt" : { "$date" : "2014-04-23T20:31:30.196+0000" }, "createdAt" : { "$date" : "2014-04-23T20:31:30.196+0000" }, "__v" : 0 }
{ "_id" : { "$oid" : "535823222b7a61adb4ed67e6" }, "name" : "VA New York Harbor Healthcare System", "uuid" : "146967028", "active" : true, "coordinates" : [ -73.97693872779119, 40.73706615 ], "properties" : { "sector" : "health", "type" : "clinic", "visits" : 1, "photoUrls" : [] }, "updatedAt" : { "$date" : "2014-04-23T20:31:30.196+0000" }, "createdAt" : { "$date" : "2014-04-23T20:31:30.196+0000" }, "__v" : 0 }
{ "_id" : { "$oid" : "535823222b7a61adb4ed67e7" }, "name" : "Northern Dispensary (historical)", "uuid" : "357609904", "active" : true, "coordinates" : [ -74.0013222, 40.7336906 ], "properties" : { "sector" : "health", "type" : "clinic", "visits" : 6, "photoUrls" : [] }, "updatedAt" : { "$date" : "2014-04-23T20:31:30.196+0000" }, "createdAt" : { "$date" : "2014-04-23T20:31:30.196+0000" }, "__v" : 0 }
{ "_id" : { "$oid" : "535823222b7a61adb4ed67e8" }, "name" : "Williamsburg-Greenpoint Health Center", "uuid" : "357624018", "active" : true, "coordinates" : [ -73.9447222, 40.7111111 ], "properties" : { "sector" : "health", "type" : "clinic", "visits" : 6, "photoUrls" : [] }, "updatedAt" : { "$date" : "2014-04-23T20:31:30.196+0000" }, "createdAt" : { "$date" : "2014-04-23T20:31:30.196+0000" }, "__v" : 0 }
{ "_id" : { "$oid" : "535823222b7a61adb4ed67e9" }, "name" : "Gouverneur Healthcare Systems", "uuid" : "1828190019", "active" : true, "coordinates" : [ -73.9875878, 40.7131467 ], "properties" : { "sector" : "health", "type" : "clinic", "visits" : 3, "photoUrls" : [] }, "updatedAt" : { "$date" : "2014-04-23T20:31:30.196+0000" }, "createdAt" : { "$date" : "2014-04-23T20:31:30.196+0000" }, "__v" : 0 }
{ "_id" : { "$oid" : "535823222b7a61adb4ed67ea" }, "name" : "Skirball Institute of Biomolecular Medicine", "uuid" : "357620439", "active" : true, "coordinates" : [ -73.97412300000001, 40.7424725 ], "properties" : { "sector" : "health", "type" : "clinic", "visits" : 4, "photoUrls" : [] }, "updatedAt" : { "$date" : "2014-04-23T20:31:30.196+0000" }, "createdAt" : { "$date" : "2014-04-23T20:31:30.196+0000" }, "__v" : 0 }
{ "_id" : { "$oid" : "535823222b7a61adb4ed67eb" }, "name" : "Beth Israel Medical Center", "uuid" : "2279513970", "active" : true, "coordinates" : [ -73.98173269999999, 40.7330672 ], "properties" : { "sector" : "health", "type" : "clinic", "visits" : 2, "photoUrls" : [] }, "updatedAt" : { "$date" : "2014-04-23T20:31:30.196+0000" }, "createdAt" : { "$date" : "2014-04-23T20:31:30.196+0000" }, "__v" : 0 }
{ "_id" : { "$oid" : "535823222b7a61adb4ed67ec" }, "name" : "David B Kriser Psychiatric Day Treatment Program", "uuid" : "357620402", "active" : true, "coordinates" : [ -73.98472219999999, 40.7344444 ], "properties" : { "sector" : "health", "type" : "clinic", "visits" : 8, "photoUrls" : [] }, "updatedAt" : { "$date" : "2014-04-23T20:31:30.197+0000" }, "createdAt" : { "$date" : "2014-04-23T20:31:30.197+0000" }, "__v" : 0 }
{ "_id" : { "$oid" : "535823222b7a61adb4ed67ed" }, "name" : "Cumberland Diagnostic Treatment Center", "uuid" : "250366650", "active" : true, "coordinates" : [ -73.9764735259929, 40.69509175 ], "properties" : { "sector" : "health", "type" : "clinic", "visits" : 5, "photoUrls" : [] }, "updatedAt" : { "$date" : "2014-04-23T20:31:30.197+0000" }, "createdAt" : { "$date" : "2014-04-23T20:31:30.197+0000" }, "__v" : 0 }
{ "_id" : { "$oid" : "535823222b7a61adb4ed67ee" }, "name" : "Manhattan Avenue Health Center", "uuid" : "357637291", "active" : true, "coordinates" : [ -73.9541667, 40.7322222 ], "properties" : { "sector" : "health", "type" : "clinic", "visits" : 2, "photoUrls" : [] }, "updatedAt" : { "$date" : "2014-04-23T20:31:30.197+0000" }, "createdAt" : { "$date" : "2014-04-23T20:31:30.197+0000" }, "__v" : 0 }
{ "_id" : { "$oid" : "535823222b7a61adb4ed67ef" }, "name" : "Bishop Francis J Mugavero Center for Geriatric Care", "uuid" : "357618839", "active" : true, "coordinates" : [ -73.987353, 40.686292 ], "properties" : { "sector" : "health", "type" : "clinic", "visits" : 1, "photoUrls" : [] }, "updatedAt" : { "$date" : "2014-04-23T20:31:30.197+0000" }, "createdAt" : { "$date" : "2014-04-23T20:31:30.197+0000" }, "__v" : 0 }
{ "_id" : { "$oid" : "535823222b7a61adb4ed67f0" }, "name" : "Ryan/NENA Comprehensive Heath Service Center", "uuid" : "357620336", "active" : true, "coordinates" : [ -73.9805556, 40.7213889 ], "properties" : { "sector" : "health", "type" : "clinic", "visits" : 7, "photoUrls" : [] }, "updatedAt" : { "$date" : "2014-04-23T20:31:30.197+0000" }, "createdAt" : { "$date" : "2014-04-23T20:31:30.197+0000" }, "__v" : 0 }
{ "_id" : { "$oid" : "535823222b7a61adb4ed67f1" }, "name" : "PromptMD Family Practice", "uuid" : "297456770", "active" : true, "coordinates" : [ -74.02715019999999, 40.7500692 ], "properties" : { "sector" : "health", "type" : "clinic", "visits" : 7, "photoUrls" : [] }, "updatedAt" : { "$date" : "2014-04-23T20:31:30.198+0000" }, "createdAt" : { "$date" : "2014-04-23T20:31:30.198+0000" }, "__v" : 0 }
{ "_id" : { "$oid" : "53582337052147afb46247bc" }, "name" : "Power of Faith Ministry International", "uuid" : "357623670", "active" : true, "coordinates" : [ -73.9438889, 40.6511111 ], "properties" : { "sector" : "energy", "type" : "grid node", "visits" : 8, "photoUrls" : [] }, "updatedAt" : { "$date" : "2014-04-23T20:31:51.073+0000" }, "createdAt" : { "$date" : "2014-04-23T20:31:51.073+0000" }, "__v" : 0 }
{ "_id" : { "$oid" : "53582337052147afb46247bd" }, "name" : "Power Road", "uuid" : "5702476", "active" : true, "coordinates" : [ -73.82041099999999, 40.606469 ], "properties" : { "sector" : "energy", "type" : "grid node", "visits" : 4, "photoUrls" : [] }, "updatedAt" : { "$date" : "2014-04-23T20:31:51.078+0000" }, "createdAt" : { "$date" : "2014-04-23T20:31:51.078+0000" }, "__v" : 0 }
{ "_id" : { "$oid" : "53582337052147afb46247be" }, "name" : "Knowledge And Power Preparatory VII Middle School", "uuid" : "357630669", "active" : true, "coordinates" : [ -73.9586111, 40.6922222 ], "properties" : { "sector" : "energy", "type" : "grid node", "visits" : 9, "photoUrls" : [] }, "updatedAt" : { "$date" : "2014-04-23T20:31:51.078+0000" }, "createdAt" : { "$date" : "2014-04-23T20:31:51.078+0000" }, "__v" : 0 }
{ "_id" : { "$oid" : "53582337052147afb46247bf" }, "name" : "Power Playground", "uuid" : "357628362", "active" : true, "coordinates" : [ -73.9272222, 40.6183333 ], "properties" : { "sector" : "energy", "type" : "grid node", "visits" : 5, "photoUrls" : [] }, "updatedAt" : { "$date" : "2014-04-23T20:31:51.079+0000" }, "createdAt" : { "$date" : "2014-04-23T20:31:51.079+0000" }, "__v" : 0 }
{ "_id" : { "$oid" : "53582337052147afb46247c0" }, "name" : "Knowledge And Power Preparatory International High School", "uuid" : "357631941", "active" : true, "coordinates" : [ -73.88861110000001, 40.8594444 ], "properties" : { "sector" : "energy", "type" : "grid node", "visits" : 8, "photoUrls" : [] }, "updatedAt" : { "$date" : "2014-04-23T20:31:51.079+0000" }, "createdAt" : { "$date" : "2014-04-23T20:31:51.079+0000" }, "__v" : 0 }
{ "_id" : { "$oid" : "535823434566f3b1b43b010e" }, "name" : "New York City", "uuid" : "175905", "active" : true, "coordinates" : [ -73.9865812, 40.7305991 ], "properties" : { "sector" : "education", "type" : "early childhood", "visits" : 9, "photoUrls" : [] }, "updatedAt" : { "$date" : "2014-06-19T16:39:07.000+0000" }, "createdAt" : { "$date" : "2014-04-23T20:32:03.989+0000" }, "__v" : 0 }
{ "_id" : { "$oid" : "535823434566f3b1b43b010f" }, "name" : "Academy of Music (historical)", "uuid" : "357609020", "active" : true, "coordinates" : [ -73.98847240000001, 40.7339909 ], "properties" : { "sector" : "education", "type" : "early childhood", "visits" : 9, "photoUrls" : [] }, "updatedAt" : { "$date" : "2014-04-23T20:32:03.994+0000" }, "createdAt" : { "$date" : "2014-04-23T20:32:03.994+0000" }, "__v" : 0 }
{ "_id" : { "$oid" : "535823434566f3b1b43b0110" }, "name" : "York Preparatory School", "uuid" : "357621796", "active" : true, "coordinates" : [ -73.9794715, 40.7738428 ], "properties" : { "sector" : "education", "type" : "early childhood", "visits" : 11, "photoUrls" : [] }, "updatedAt" : { "$date" : "2014-06-24T19:08:34.000+0000" }, "createdAt" : { "$date" : "2014-04-23T20:32:03.995+0000" }, "__v" : 0 }
{ "_id" : { "$oid" : "535823434566f3b1b43b0111" }, "name" : "Eastern District High School", "uuid" : "357557746", "active" : true, "coordinates" : [ -73.95708260000001, 40.7062137 ], "properties" : { "sector" : "education", "type" : "early childhood", "visits" : 1, "photoUrls" : [] }, "updatedAt" : { "$date" : "2014-04-23T20:32:03.995+0000" }, "createdAt" : { "$date" : "2014-04-23T20:32:03.995+0000" }, "__v" : 0 }
{ "_id" : { "$oid" : "535823434566f3b1b43b0112" }, "name" : "Public School 168 (historical)", "uuid" : "357579083", "active" : true, "coordinates" : [ -73.94624899999999, 40.7012139 ], "properties" : { "sector" : "education", "type" : "early childhood", "visits" : 3, "photoUrls" : [] }, "updatedAt" : { "$date" : "2014-04-23T20:32:03.995+0000" }, "createdAt" : { "$date" : "2014-04-23T20:32:03.995+0000" }, "__v" : 0 }
{ "_id" : { "$oid" : "535823434566f3b1b43b0113" }, "name" : "Public School MO94", "uuid" : "357648433", "active" : true, "coordinates" : [ -73.97736260000001, 40.7198054 ], "properties" : { "sector" : "education", "type" : "early childhood", "visits" : 7, "photoUrls" : [] }, "updatedAt" : { "$date" : "2014-04-23T20:32:03.995+0000" }, "createdAt" : { "$date" : "2014-04-23T20:32:03.995+0000" }, "__v" : 0 }
{ "_id" : { "$oid" : "535823434566f3b1b43b0114" }, "name" : "Transfiguration School", "uuid" : "357619943", "active" : true, "coordinates" : [ -73.95583329999999, 40.7055556 ], "properties" : { "sector" : "education", "type" : "early childhood", "visits" : 9, "photoUrls" : [] }, "updatedAt" : { "$date" : "2014-04-23T20:32:03.996+0000" }, "createdAt" : { "$date" : "2014-04-23T20:32:03.996+0000" }, "__v" : 0 }
{ "_id" : { "$oid" : "535823434566f3b1b43b0115" }, "name" : "Saint Stanislaus School", "uuid" : "357587424", "active" : true, "coordinates" : [ -73.9848612, 40.7284354 ], "properties" : { "sector" : "education", "type" : "early childhood", "visits" : 4, "photoUrls" : [] }, "updatedAt" : { "$date" : "2014-04-23T20:32:03.996+0000" }, "createdAt" : { "$date" : "2014-04-23T20:32:03.996+0000" }, "__v" : 0 }
{ "_id" : { "$oid" : "535823434566f3b1b43b0116" }, "name" : "Saint Stanislaus Kostka School", "uuid" : "357587421", "active" : true, "coordinates" : [ -73.9462582, 40.723328 ], "properties" : { "sector" : "education", "type" : "early childhood", "visits" : 0, "photoUrls" : [] }, "updatedAt" : { "$date" : "2014-04-23T20:32:03.996+0000" }, "createdAt" : { "$date" : "2014-04-23T20:32:03.996+0000" }, "__v" : 0 }
{ "_id" : { "$oid" : "535823434566f3b1b43b0117" }, "name" : "Saint Anthony and Saint Alphonsus School", "uuid" : "357583761", "active" : true, "coordinates" : [ -73.9534714, 40.7292689 ], "properties" : { "sector" : "education", "type" : "early childhood", "visits" : 8, "photoUrls" : [] }, "updatedAt" : { "$date" : "2014-04-23T20:32:03.997+0000" }, "createdAt" : { "$date" : "2014-04-23T20:32:03.997+0000" }, "__v" : 0 }
{ "_id" : { "$oid" : "535823434566f3b1b43b0118" }, "name" : "Middle School M243 Center School", "uuid" : "357648477", "active" : true, "coordinates" : [ -73.9737421, 40.7849411 ], "properties" : { "sector" : "education", "type" : "early childhood", "visits" : 10, "photoUrls" : [] }, "updatedAt" : { "$date" : "2014-07-14T20:57:45.000+0000" }, "createdAt" : { "$date" : "2014-04-23T20:32:03.997+0000" }, "__v" : 0 }
{ "_id" : { "$oid" : "535823434566f3b1b43b0119" }, "name" : "Public School 270", "uuid" : "357619739", "active" : true, "coordinates" : [ -73.96166669999999, 40.6908333 ], "properties" : { "sector" : "education", "type" : "early childhood", "visits" : 4, "photoUrls" : [] }, "updatedAt" : { "$date" : "2014-04-23T20:32:03.998+0000" }, "createdAt" : { "$date" : "2014-04-23T20:32:03.998+0000" }, "__v" : 0 }
{ "_id" : { "$oid" : "535823434566f3b1b43b011a" }, "name" : "New York Community College of Applied Arts and Sciences", "uuid" : "357573242", "active" : true, "coordinates" : [ -73.9595827, 40.6984361 ], "properties" : { "sector" : "education", "type" : "early childhood", "visits" : 3, "photoUrls" : [] }, "updatedAt" : { "$date" : "2014-04-23T20:32:03.999+0000" }, "createdAt" : { "$date" : "2014-04-23T20:32:03.999+0000" }, "__v" : 0 }
{ "_id" : { "$oid" : "535823434566f3b1b43b011b" }, "name" : "Public School 47", "uuid" : "357580442", "active" : true, "coordinates" : [ -73.9826389, 40.685103 ], "properties" : { "sector" : "education", "type" : "early childhood", "visits" : 7, "photoUrls" : [] }, "updatedAt" : { "$date" : "2014-04-23T20:32:03.999+0000" }, "createdAt" : { "$date" : "2014-04-23T20:32:03.999+0000" }, "__v" : 0 }
{ "_id" : { "$oid" : "535823434566f3b1b43b011c" }, "name" : "Parsons The New School for Design", "uuid" : "357620487", "active" : true, "coordinates" : [ -73.9881185, 40.7550421 ], "properties" : { "sector" : "education", "type" : "early childhood", "visits" : 6, "photoUrls" : [] }, "updatedAt" : { "$date" : "2014-04-23T20:32:03.999+0000" }, "createdAt" : { "$date" : "2014-04-23T20:32:03.999+0000" }, "__v" : 0 }
{ "_id" : { "$oid" : "535823444566f3b1b43b011d" }, "name" : "Public School 183", "uuid" : "357621656", "active" : true, "coordinates" : [ -73.9577778, 40.7638889 ], "properties" : { "sector" : "education", "type" : "early childhood", "visits" : 6, "photoUrls" : [] }, "updatedAt" : { "$date" : "2014-04-23T20:32:04.000+0000" }, "createdAt" : { "$date" : "2014-04-23T20:32:04.000+0000" }, "__v" : 0 }
{ "_id" : { "$oid" : "535823444566f3b1b43b011e" }, "name" : "Public School 34", "uuid" : "357580216", "active" : true, "coordinates" : [ -73.9498602, 40.7262134 ], "properties" : { "sector" : "education", "type" : "early childhood", "visits" : 1, "photoUrls" : [] }, "updatedAt" : { "$date" : "2014-04-23T20:32:04.000+0000" }, "createdAt" : { "$date" : "2014-04-23T20:32:04.000+0000" }, "__v" : 0 }
{ "_id" : { "$oid" : "535823444566f3b1b43b011f" }, "name" : "Long Island University Brooklyn Campus", "uuid" : "357569585", "active" : true, "coordinates" : [ -73.98139500000001, 40.6900855 ], "properties" : { "sector" : "education", "type" : "early childhood", "visits" : 8, "photoUrls" : [] }, "updatedAt" : { "$date" : "2014-04-23T20:32:04.000+0000" }, "createdAt" : { "$date" : "2014-04-23T20:32:04.000+0000" }, "__v" : 0 }
{ "_id" : { "$oid" : "535823444566f3b1b43b0120" }, "name" : "Middle School 255", "uuid" : "357621494", "active" : true, "coordinates" : [ -73.9816747, 40.7353223 ], "properties" : { "sector" : "education", "type" : "early childhood", "visits" : 9, "photoUrls" : [] }, "updatedAt" : { "$date" : "2014-04-23T20:32:04.000+0000" }, "createdAt" : { "$date" : "2014-04-23T20:32:04.000+0000" }, "__v" : 0 }
{ "_id" : { "$oid" : "535823444566f3b1b43b0121" }, "name" : "Public School 130", "uuid" : "357621626", "active" : true, "coordinates" : [ -73.99848919999999, 40.7185361 ], "properties" : { "sector" : "education", "type" : "early childhood", "visits" : 3, "photoUrls" : [] }, "updatedAt" : { "$date" : "2014-04-23T20:32:04.000+0000" }, "createdAt" : { "$date" : "2014-04-23T20:32:04.000+0000" }, "__v" : 0 }
{ "_id" : { "$oid" : "535823444566f3b1b43b0122" }, "name" : "M459 Manhattan International High School", "uuid" : "357621367", "active" : true, "coordinates" : [ -73.95959209999999, 40.7655687 ], "properties" : { "sector" : "education", "type" : "early childhood", "visits" : 3, "photoUrls" : [] }, "updatedAt" : { "$date" : "2014-04-23T20:32:04.001+0000" }, "createdAt" : { "$date" : "2014-04-23T20:32:04.001+0000" }, "__v" : 0 }
{ "_id" : { "$oid" : "535823444566f3b1b43b0123" }, "name" : "Northside Catholic School at Saint Vincent De Paul", "uuid" : "357619668", "active" : true, "coordinates" : [ -73.95725299999999, 40.717275 ], "properties" : { "sector" : "education", "type" : "early childhood", "visits" : 0, "photoUrls" : [] }, "updatedAt" : { "$date" : "2014-04-23T20:32:04.001+0000" }, "createdAt" : { "$date" : "2014-04-23T20:32:04.001+0000" }, "__v" : 0 }
{ "_id" : { "$oid" : "535823444566f3b1b43b0124" }, "name" : "Trinity Chapel School (historical)", "uuid" : "357609017", "active" : true, "coordinates" : [ -73.9895836, 40.7434351 ], "properties" : { "sector" : "education", "type" : "early childhood", "visits" : 9, "photoUrls" : [] }, "updatedAt" : { "$date" : "2014-04-23T20:32:04.002+0000" }, "createdAt" : { "$date" : "2014-04-23T20:32:04.002+0000" }, "__v" : 0 }
{ "_id" : { "$oid" : "535823444566f3b1b43b0125" }, "name" : "Junior High School 12", "uuid" : "357567214", "active" : true, "coordinates" : [ -73.9815277, 40.7137136 ], "properties" : { "sector" : "education", "type" : "early childhood", "visits" : 6, "photoUrls" : [] }, "updatedAt" : { "$date" : "2014-04-23T20:32:04.002+0000" }, "createdAt" : { "$date" : "2014-04-23T20:32:04.002+0000" }, "__v" : 0 }
{ "_id" : { "$oid" : "535823444566f3b1b43b0126" }, "name" : "Public School 2", "uuid" : "357579383", "active" : true, "coordinates" : [ -73.99222229999999, 40.7127779 ], "properties" : { "sector" : "education", "type" : "early childhood", "visits" : 1, "photoUrls" : [] }, "updatedAt" : { "$date" : "2014-04-23T20:32:04.002+0000" }, "createdAt" : { "$date" : "2014-04-23T20:32:04.002+0000" }, "__v" : 0 }
{ "_id" : { "$oid" : "535823444566f3b1b43b0127" }, "name" : "Public School 64 (historical)", "uuid" : "357580717", "active" : true, "coordinates" : [ -73.9795833, 40.7262133 ], "properties" : { "sector" : "education", "type" : "early childhood", "visits" : 2, "photoUrls" : [] }, "updatedAt" : { "$date" : "2014-04-23T20:32:04.002+0000" }, "createdAt" : { "$date" : "2014-04-23T20:32:04.002+0000" }, "__v" : 0 }
{ "_id" : { "$oid" : "535823444566f3b1b43b0128" }, "name" : "Seward Park High School", "uuid" : "357621758", "active" : true, "coordinates" : [ -73.98947769999999, 40.7172511 ], "properties" : { "sector" : "education", "type" : "early childhood", "visits" : 8, "photoUrls" : [] }, "updatedAt" : { "$date" : "2014-04-23T20:32:04.002+0000" }, "createdAt" : { "$date" : "2014-04-23T20:32:04.002+0000" }, "__v" : 0 }
{ "_id" : { "$oid" : "535823444566f3b1b43b0129" }, "name" : "Public School 196", "uuid" : "357580651", "active" : true, "coordinates" : [ -73.9790277, 40.7276022 ], "properties" : { "sector" : "education", "type" : "early childhood", "visits" : 0, "photoUrls" : [] }, "updatedAt" : { "$date" : "2014-04-23T20:32:04.002+0000" }, "createdAt" : { "$date" : "2014-04-23T20:32:04.002+0000" }, "__v" : 0 }
{ "_id" : { "$oid" : "535823444566f3b1b43b012a" }, "name" : "Ella Baker School", "uuid" : "357621359", "active" : true, "coordinates" : [ -73.9597364, 40.7653352 ], "properties" : { "sector" : "education", "type" : "early childhood", "visits" : 0, "photoUrls" : [] }, "updatedAt" : { "$date" : "2014-04-23T20:32:04.003+0000" }, "createdAt" : { "$date" : "2014-04-23T20:32:04.003+0000" }, "__v" : 0 }
{ "_id" : { "$oid" : "535823444566f3b1b43b012b" }, "name" : "Intermediate School 318", "uuid" : "357619492", "active" : true, "coordinates" : [ -73.9483333, 40.7033333 ], "properties" : { "sector" : "education", "type" : "early childhood", "visits" : 5, "photoUrls" : [] }, "updatedAt" : { "$date" : "2014-04-23T20:32:04.003+0000" }, "createdAt" : { "$date" : "2014-04-23T20:32:04.003+0000" }, "__v" : 0 }
{ "_id" : { "$oid" : "535823444566f3b1b43b012c" }, "name" : "Rand School (historical)", "uuid" : "357609014", "active" : true, "coordinates" : [ -73.99208369999999, 40.7364909 ], "properties" : { "sector" : "education", "type" : "early childhood", "visits" : 8, "photoUrls" : [] }, "updatedAt" : { "$date" : "2014-04-23T20:32:04.004+0000" }, "createdAt" : { "$date" : "2014-04-23T20:32:04.004+0000" }, "__v" : 0 }
{ "_id" : { "$oid" : "535823444566f3b1b43b012d" }, "name" : "New York City Laboratory Middle School of Collaborative Studies", "uuid" : "357621527", "active" : true, "coordinates" : [ -74.0025141, 40.7424555 ], "properties" : { "sector" : "education", "type" : "early childhood", "visits" : 2, "photoUrls" : [] }, "updatedAt" : { "$date" : "2014-04-23T20:32:04.004+0000" }, "createdAt" : { "$date" : "2014-04-23T20:32:04.004+0000" }, "__v" : 0 }
{ "_id" : { "$oid" : "535823444566f3b1b43b012e" }, "name" : "Public School 23", "uuid" : "357579732", "active" : true, "coordinates" : [ -73.9987505, 40.7162135 ], "properties" : { "sector" : "education", "type" : "early childhood", "visits" : 5, "photoUrls" : [] }, "updatedAt" : { "$date" : "2014-04-23T20:32:04.004+0000" }, "createdAt" : { "$date" : "2014-04-23T20:32:04.004+0000" }, "__v" : 0 }
{ "_id" : { "$oid" : "535823444566f3b1b43b012f" }, "name" : "Manhattan Bridges High School", "uuid" : "357621469", "active" : true, "coordinates" : [ -73.9894492, 40.7172222 ], "properties" : { "sector" : "education", "type" : "early childhood", "visits" : 0, "photoUrls" : [] }, "updatedAt" : { "$date" : "2014-04-23T20:32:04.004+0000" }, "createdAt" : { "$date" : "2014-04-23T20:32:04.004+0000" }, "__v" : 0 }
{ "_id" : { "$oid" : "535823444566f3b1b43b0130" }, "name" : "New York City Laboratory High School of Collaborative Studies", "uuid" : "357621532", "active" : true, "coordinates" : [ -74.00250920000001, 40.7425475 ], "properties" : { "sector" : "education", "type" : "early childhood", "visits" : 4, "photoUrls" : [] }, "updatedAt" : { "$date" : "2014-04-23T20:32:04.004+0000" }, "createdAt" : { "$date" : "2014-04-23T20:32:04.004+0000" }, "__v" : 0 }
{ "_id" : { "$oid" : "535823444566f3b1b43b0131" }, "name" : "Saint Cecilia School", "uuid" : "357584102", "active" : true, "coordinates" : [ -73.94235999999999, 40.7195468 ], "properties" : { "sector" : "education", "type" : "early childhood", "visits" : 6, "photoUrls" : [] }, "updatedAt" : { "$date" : "2014-04-23T20:32:04.005+0000" }, "createdAt" : { "$date" : "2014-04-23T20:32:04.005+0000" }, "__v" : 0 }
{ "_id" : { "$oid" : "535823444566f3b1b43b0132" }, "name" : "United Nations International School", "uuid" : "357620432", "active" : true, "coordinates" : [ -73.9747222, 40.7363889 ], "properties" : { "sector" : "education", "type" : "early childhood", "visits" : 7, "photoUrls" : [] }, "updatedAt" : { "$date" : "2014-04-23T20:32:04.005+0000" }, "createdAt" : { "$date" : "2014-04-23T20:32:04.005+0000" }, "__v" : 0 }
{ "_id" : { "$oid" : "535823444566f3b1b43b0133" }, "name" : "Our Lady of Consolation School", "uuid" : "357623980", "active" : true, "coordinates" : [ -73.96175770000001, 40.715379 ], "properties" : { "sector" : "education", "type" : "early childhood", "visits" : 6, "photoUrls" : [] }, "updatedAt" : { "$date" : "2014-04-23T20:32:04.005+0000" }, "createdAt" : { "$date" : "2014-04-23T20:32:04.005+0000" }, "__v" : 0 }
{ "_id" : { "$oid" : "535823444566f3b1b43b0134" }, "name" : "Public School 15", "uuid" : "357578836", "active" : true, "coordinates" : [ -73.98347219999999, 40.687603 ], "properties" : { "sector" : "education", "type" : "early childhood", "visits" : 7, "photoUrls" : [] }, "updatedAt" : { "$date" : "2014-04-23T20:32:04.005+0000" }, "createdAt" : { "$date" : "2014-04-23T20:32:04.005+0000" }, "__v" : 0 }
{ "_id" : { "$oid" : "535823444566f3b1b43b0135" }, "name" : "Public School 69", "uuid" : "357580780", "active" : true, "coordinates" : [ -73.9795833, 40.7634348 ], "properties" : { "sector" : "education", "type" : "early childhood", "visits" : 8, "photoUrls" : [] }, "updatedAt" : { "$date" : "2014-04-23T20:32:04.005+0000" }, "createdAt" : { "$date" : "2014-04-23T20:32:04.005+0000" }, "__v" : 0 }
{ "_id" : { "$oid" : "535823444566f3b1b43b0136" }, "name" : "Astor Memorial School (historical)", "uuid" : "357608984", "active" : true, "coordinates" : [ -73.99458370000001, 40.7237133 ], "properties" : { "sector" : "education", "type" : "early childhood", "visits" : 5, "photoUrls" : [] }, "updatedAt" : { "$date" : "2014-04-23T20:32:04.005+0000" }, "createdAt" : { "$date" : "2014-04-23T20:32:04.005+0000" }, "__v" : 0 }
{ "_id" : { "$oid" : "535823444566f3b1b43b0137" }, "name" : "School of Christian Doctrine", "uuid" : "357618546", "active" : true, "coordinates" : [ -73.9827658, 40.719191 ], "properties" : { "sector" : "education", "type" : "early childhood", "visits" : 5, "photoUrls" : [] }, "updatedAt" : { "$date" : "2014-04-23T20:32:04.005+0000" }, "createdAt" : { "$date" : "2014-04-23T20:32:04.005+0000" }, "__v" : 0 }
{ "_id" : { "$oid" : "535823444566f3b1b43b0138" }, "name" : "Public School-Intermediate School 89", "uuid" : "357608173", "active" : true, "coordinates" : [ -74.0140287, 40.7170467 ], "properties" : { "sector" : "education", "type" : "early childhood", "visits" : 7, "photoUrls" : [] }, "updatedAt" : { "$date" : "2014-04-23T20:32:04.006+0000" }, "createdAt" : { "$date" : "2014-04-23T20:32:04.006+0000" }, "__v" : 0 }
{ "_id" : { "$oid" : "535823444566f3b1b43b0139" }, "name" : "Saint Francis Preparatory School", "uuid" : "357584495", "active" : true, "coordinates" : [ -73.95833, 40.71667 ], "properties" : { "sector" : "education", "type" : "early childhood", "visits" : 5, "photoUrls" : [] }, "updatedAt" : { "$date" : "2014-04-23T20:32:04.006+0000" }, "createdAt" : { "$date" : "2014-04-23T20:32:04.006+0000" }, "__v" : 0 }
{ "_id" : { "$oid" : "535823444566f3b1b43b013a" }, "name" : "M565 Urban Academy Laboratory High School", "uuid" : "357648532", "active" : true, "coordinates" : [ -73.9595892, 40.7654825 ], "properties" : { "sector" : "education", "type" : "early childhood", "visits" : 2, "photoUrls" : [] }, "updatedAt" : { "$date" : "2014-04-23T20:32:04.006+0000" }, "createdAt" : { "$date" : "2014-04-23T20:32:04.006+0000" }, "__v" : 0 }
{ "_id" : { "$oid" : "535823444566f3b1b43b013b" }, "name" : "Barrow Street Nursery School", "uuid" : "357653017", "active" : true, "coordinates" : [ -74.003083, 40.7322415 ], "properties" : { "sector" : "education", "type" : "early childhood", "visits" : 8, "photoUrls" : [] }, "updatedAt" : { "$date" : "2014-04-23T20:32:04.006+0000" }, "createdAt" : { "$date" : "2014-04-23T20:32:04.006+0000" }, "__v" : 0 }
{ "_id" : { "$oid" : "535823444566f3b1b43b013c" }, "name" : "New York Institute of Technology Manhattan Campus", "uuid" : "357647418", "active" : true, "coordinates" : [ -73.9825, 40.7694444 ], "properties" : { "sector" : "education", "type" : "early childhood", "visits" : 3, "photoUrls" : [] }, "updatedAt" : { "$date" : "2014-04-23T20:32:04.006+0000" }, "createdAt" : { "$date" : "2014-04-23T20:32:04.006+0000" }, "__v" : 0 }
{ "_id" : { "$oid" : "535823444566f3b1b43b013d" }, "name" : "Yeshiva Mesivta Arugath Habosem", "uuid" : "357619998", "active" : true, "coordinates" : [ -73.9561111, 40.7002778 ], "properties" : { "sector" : "education", "type" : "early childhood", "visits" : 0, "photoUrls" : [] }, "updatedAt" : { "$date" : "2014-04-23T20:32:04.007+0000" }, "createdAt" : { "$date" : "2014-04-23T20:32:04.007+0000" }, "__v" : 0 }
{ "_id" : { "$oid" : "535823444566f3b1b43b013e" }, "name" : "Public School 18", "uuid" : "357579218", "active" : true, "coordinates" : [ -73.9723609, 40.7567683 ], "properties" : { "sector" : "education", "type" : "early childhood", "visits" : 1, "photoUrls" : [] }, "updatedAt" : { "$date" : "2014-04-23T20:32:04.007+0000" }, "createdAt" : { "$date" : "2014-04-23T20:32:04.007+0000" }, "__v" : 0 }
{ "_id" : { "$oid" : "535823444566f3b1b43b013f" }, "name" : "Junior High School 126", "uuid" : "357567236", "active" : true, "coordinates" : [ -73.95458259999999, 40.7270466 ], "properties" : { "sector" : "education", "type" : "early childhood", "visits" : 6, "photoUrls" : [] }, "updatedAt" : { "$date" : "2014-04-23T20:32:04.007+0000" }, "createdAt" : { "$date" : "2014-04-23T20:32:04.007+0000" }, "__v" : 0 }
{ "_id" : { "$oid" : "53582354c23e11b3b4bf6674" }, "name" : "The City College of New York", "uuid" : "108239587", "active" : true, "coordinates" : [ -73.9508851686094, 40.8181092 ], "properties" : { "sector" : "education", "type" : "early childhood", "visits" : 7, "photoUrls" : [] }, "updatedAt" : { "$date" : "2014-07-14T21:01:49.000+0000" }, "createdAt" : { "$date" : "2014-04-23T20:32:20.038+0000" }, "__v" : 0 }
{ "_id" : { "$oid" : "53582354c23e11b3b4bf6675" }, "name" : "State University of New York Maritime College", "uuid" : "357598725", "active" : true, "coordinates" : [ -73.7925, 40.80528 ], "properties" : { "sector" : "education", "type" : "early childhood", "visits" : 4, "photoUrls" : [] }, "updatedAt" : { "$date" : "2014-04-23T20:32:20.043+0000" }, "createdAt" : { "$date" : "2014-04-23T20:32:20.043+0000" }, "__v" : 0 }
{ "_id" : { "$oid" : "53582354c23e11b3b4bf6676" }, "name" : "Barnard College", "uuid" : "39243740", "active" : true, "coordinates" : [ -73.9635828677952, 40.8095097 ], "properties" : { "sector" : "education", "type" : "early childhood", "visits" : 55, "photoUrls" : [ "http://23.21.86.131:3000/sites/photos/53582354c23e11b3b4bf6676/Site_53582354c23e11b3b4bf6676_20140911182556.jpg" ] }, "updatedAt" : { "$date" : "2014-09-11T19:22:42.000+0000" }, "createdAt" : { "$date" : "2014-04-23T20:32:20.043+0000" }, "__v" : 20 }
{ "_id" : { "$oid" : "53582354c23e11b3b4bf6677" }, "name" : "City University of New York Hunter College", "uuid" : "108156814", "active" : true, "coordinates" : [ -73.96429663130721, 40.76817505 ], "properties" : { "sector" : "education", "type" : "early childhood", "visits" : 4, "photoUrls" : [] }, "updatedAt" : { "$date" : "2014-04-23T20:32:20.044+0000" }, "createdAt" : { "$date" : "2014-04-23T20:32:20.043+0000" }, "__v" : 0 }
{ "_id" : { "$oid" : "53582354c23e11b3b4bf6678" }, "name" : "Brooklyn College", "uuid" : "1483026335", "active" : true, "coordinates" : [ -73.95266169999999, 40.6323159 ], "properties" : { "sector" : "education", "type" : "early childhood", "visits" : 3, "photoUrls" : [] }, "updatedAt" : { "$date" : "2014-04-23T20:32:20.044+0000" }, "createdAt" : { "$date" : "2014-04-23T20:32:20.044+0000" }, "__v" : 0 }
{ "_id" : { "$oid" : "53582354c23e11b3b4bf6679" }, "name" : "John Jay College of Criminal Justice", "uuid" : "357563098", "active" : true, "coordinates" : [ -73.9881946, 40.7703792 ], "properties" : { "sector" : "education", "type" : "early childhood", "visits" : 2, "photoUrls" : [] }, "updatedAt" : { "$date" : "2014-04-23T20:32:20.044+0000" }, "createdAt" : { "$date" : "2014-04-23T20:32:20.044+0000" }, "__v" : 0 }
{ "_id" : { "$oid" : "53582354c23e11b3b4bf667a" }, "name" : "Manhattan College", "uuid" : "357570178", "active" : true, "coordinates" : [ -73.9013111, 40.8894545 ], "properties" : { "sector" : "education", "type" : "early childhood", "visits" : 9, "photoUrls" : [] }, "updatedAt" : { "$date" : "2014-04-23T20:32:20.045+0000" }, "createdAt" : { "$date" : "2014-04-23T20:32:20.045+0000" }, "__v" : 0 }
{ "_id" : { "$oid" : "53582354c23e11b3b4bf667b" }, "name" : "Hunter College Campus Schools", "uuid" : "266940106", "active" : true, "coordinates" : [ -73.9538872875852, 40.7858194 ], "properties" : { "sector" : "education", "type" : "early childhood", "visits" : 4, "photoUrls" : [] }, "updatedAt" : { "$date" : "2014-04-23T20:32:20.045+0000" }, "createdAt" : { "$date" : "2014-04-23T20:32:20.045+0000" }, "__v" : 0 }
{ "_id" : { "$oid" : "53582354c23e11b3b4bf667c" }, "name" : "College Point", "uuid" : "158806637", "active" : true, "coordinates" : [ -73.8459682, 40.7876014 ], "properties" : { "sector" : "education", "type" : "early childhood", "visits" : 2, "photoUrls" : [] }, "updatedAt" : { "$date" : "2014-04-23T20:32:20.045+0000" }, "createdAt" : { "$date" : "2014-04-23T20:32:20.045+0000" }, "__v" : 0 }
{ "_id" : { "$oid" : "53582354c23e11b3b4bf667d" }, "name" : "Saint Francis College", "uuid" : "241839661", "active" : true, "coordinates" : [ -73.9921980016213, 40.6930776 ], "properties" : { "sector" : "education", "type" : "early childhood", "visits" : 7, "photoUrls" : [] }, "updatedAt" : { "$date" : "2014-04-23T20:32:20.046+0000" }, "createdAt" : { "$date" : "2014-04-23T20:32:20.046+0000" }, "__v" : 0 }
{ "_id" : { "$oid" : "53582354c23e11b3b4bf667e" }, "name" : "City University of New York Lehman College", "uuid" : "76090444", "active" : true, "coordinates" : [ -73.89444873344959, 40.87284225 ], "properties" : { "sector" : "education", "type" : "early childhood", "visits" : 9, "photoUrls" : [] }, "updatedAt" : { "$date" : "2014-04-23T20:32:20.046+0000" }, "createdAt" : { "$date" : "2014-04-23T20:32:20.046+0000" }, "__v" : 0 }
{ "_id" : { "$oid" : "53582354c23e11b3b4bf667f" }, "name" : "College of Staten Island CUNY", "uuid" : "33871424", "active" : true, "coordinates" : [ -74.1501490293392, 40.6023794 ], "properties" : { "sector" : "education", "type" : "early childhood", "visits" : 4, "photoUrls" : [] }, "updatedAt" : { "$date" : "2014-04-23T20:32:20.047+0000" }, "createdAt" : { "$date" : "2014-04-23T20:32:20.047+0000" }, "__v" : 0 }
{ "_id" : { "$oid" : "53582354c23e11b3b4bf6680" }, "name" : "York College the City University of New York", "uuid" : "357618438", "active" : true, "coordinates" : [ -73.79888889999999, 40.7008333 ], "properties" : { "sector" : "education", "type" : "early childhood", "visits" : 9, "photoUrls" : [] }, "updatedAt" : { "$date" : "2014-04-23T20:32:20.048+0000" }, "createdAt" : { "$date" : "2014-04-23T20:32:20.048+0000" }, "__v" : 0 }
{ "_id" : { "$oid" : "53582354c23e11b3b4bf6681" }, "name" : "Bard High School Early College", "uuid" : "147472863", "active" : true, "coordinates" : [ -73.9761999959846, 40.71845985 ], "properties" : { "sector" : "education", "type" : "early childhood", "visits" : 9, "photoUrls" : [] }, "updatedAt" : { "$date" : "2014-04-23T20:32:20.048+0000" }, "createdAt" : { "$date" : "2014-04-23T20:32:20.048+0000" }, "__v" : 0 }
{ "_id" : { "$oid" : "53582354c23e11b3b4bf6682" }, "name" : "Kingsborough Community College", "uuid" : "357568100", "active" : true, "coordinates" : [ -73.934782, 40.5775938 ], "properties" : { "sector" : "education", "type" : "early childhood", "visits" : 9, "photoUrls" : [] }, "updatedAt" : { "$date" : "2014-04-23T20:32:20.048+0000" }, "createdAt" : { "$date" : "2014-04-23T20:32:20.048+0000" }, "__v" : 0 }
{ "_id" : { "$oid" : "53582354c23e11b3b4bf6683" }, "name" : "Monroe College", "uuid" : "357647494", "active" : true, "coordinates" : [ -73.89944439999999, 40.8625 ], "properties" : { "sector" : "education", "type" : "early childhood", "visits" : 6, "photoUrls" : [] }, "updatedAt" : { "$date" : "2014-04-23T20:32:20.049+0000" }, "createdAt" : { "$date" : "2014-04-23T20:32:20.049+0000" }, "__v" : 0 }
{ "_id" : { "$oid" : "53582354c23e11b3b4bf6684" }, "name" : "Q530 International High School at LaGuardia Community College", "uuid" : "357648487", "active" : true, "coordinates" : [ -73.93355320000001, 40.7435086 ], "properties" : { "sector" : "education", "type" : "early childhood", "visits" : 6, "photoUrls" : [] }, "updatedAt" : { "$date" : "2014-06-19T02:08:29.000+0000" }, "createdAt" : { "$date" : "2014-04-23T20:32:20.049+0000" }, "__v" : 0 }
{ "_id" : { "$oid" : "53582354c23e11b3b4bf6685" }, "name" : "New York Institute of Technology", "uuid" : "1383938728", "active" : true, "coordinates" : [ -73.9824042, 40.7696925 ], "properties" : { "sector" : "education", "type" : "early childhood", "visits" : 6, "photoUrls" : [] }, "updatedAt" : { "$date" : "2014-04-23T20:32:20.049+0000" }, "createdAt" : { "$date" : "2014-04-23T20:32:20.049+0000" }, "__v" : 0 }
{ "_id" : { "$oid" : "53582354c23e11b3b4bf6686" }, "name" : "Boricua College", "uuid" : "357621183", "active" : true, "coordinates" : [ -73.9461111, 40.8333333 ], "properties" : { "sector" : "education", "type" : "early childhood", "visits" : 3, "photoUrls" : [] }, "updatedAt" : { "$date" : "2014-04-23T20:32:20.049+0000" }, "createdAt" : { "$date" : "2014-04-23T20:32:20.049+0000" }, "__v" : 0 }
{ "_id" : { "$oid" : "53582354c23e11b3b4bf6687" }, "name" : "Queensborough Community College - City University of New York", "uuid" : "357581471", "active" : true, "coordinates" : [ -73.7570961, 40.7560524 ], "properties" : { "sector" : "education", "type" : "early childhood", "visits" : 0, "photoUrls" : [] }, "updatedAt" : { "$date" : "2014-04-23T20:32:20.050+0000" }, "createdAt" : { "$date" : "2014-04-23T20:32:20.050+0000" }, "__v" : 0 }
{ "_id" : { "$oid" : "53582354c23e11b3b4bf6688" }, "name" : "Vaughn College of Aeronautics and Technology", "uuid" : "357544067", "active" : true, "coordinates" : [ -73.88252629999999, 40.7677527 ], "properties" : { "sector" : "education", "type" : "early childhood", "visits" : 6, "photoUrls" : [] }, "updatedAt" : { "$date" : "2014-04-23T20:32:20.050+0000" }, "createdAt" : { "$date" : "2014-04-23T20:32:20.050+0000" }, "__v" : 0 }
{ "_id" : { "$oid" : "53582354c23e11b3b4bf6689" }, "name" : "137th Street-City College (1)", "uuid" : "1638063667", "active" : true, "coordinates" : [ -73.95417089999999, 40.8214029 ], "properties" : { "sector" : "education", "type" : "early childhood", "visits" : 4, "photoUrls" : [] }, "updatedAt" : { "$date" : "2014-04-23T20:32:20.050+0000" }, "createdAt" : { "$date" : "2014-04-23T20:32:20.050+0000" }, "__v" : 0 }
{ "_id" : { "$oid" : "53582354c23e11b3b4bf668a" }, "name" : "Bedford Park Boulevard-Lehman College (4)", "uuid" : "897934110", "active" : true, "coordinates" : [ -73.89017440000001, 40.8733436 ], "properties" : { "sector" : "education", "type" : "early childhood", "visits" : 2, "photoUrls" : [] }, "updatedAt" : { "$date" : "2014-04-23T20:32:20.051+0000" }, "createdAt" : { "$date" : "2014-04-23T20:32:20.051+0000" }, "__v" : 0 }
{ "_id" : { "$oid" : "53582354c23e11b3b4bf668b" }, "name" : "Lander College for Men", "uuid" : "248331928", "active" : true, "coordinates" : [ -73.8153095980305, 40.72440875 ], "properties" : { "sector" : "education", "type" : "early childhood", "visits" : 6, "photoUrls" : [] }, "updatedAt" : { "$date" : "2014-04-23T20:32:20.051+0000" }, "createdAt" : { "$date" : "2014-04-23T20:32:20.051+0000" }, "__v" : 0 }
{ "_id" : { "$oid" : "53582354c23e11b3b4bf668c" }, "name" : "College Point Boulevard", "uuid" : "220470246", "active" : true, "coordinates" : [ -73.834529, 40.758993 ], "properties" : { "sector" : "education", "type" : "early childhood", "visits" : 8, "photoUrls" : [] }, "updatedAt" : { "$date" : "2014-04-23T20:32:20.051+0000" }, "createdAt" : { "$date" : "2014-04-23T20:32:20.051+0000" }, "__v" : 0 }
{ "_id" : { "$oid" : "53582354c23e11b3b4bf668d" }, "name" : "SUNY State College of Optometry", "uuid" : "266170762", "active" : true, "coordinates" : [ -73.9821680580893, 40.754488 ], "properties" : { "sector" : "education", "type" : "early childhood", "visits" : 9, "photoUrls" : [] }, "updatedAt" : { "$date" : "2014-04-23T20:32:20.051+0000" }, "createdAt" : { "$date" : "2014-04-23T20:32:20.051+0000" }, "__v" : 0 }
{ "_id" : { "$oid" : "53582354c23e11b3b4bf668e" }, "name" : "TCI College of Technology", "uuid" : "2407444755", "active" : true, "coordinates" : [ -73.9957617, 40.7504518 ], "properties" : { "sector" : "education", "type" : "early childhood", "visits" : 7, "photoUrls" : [] }, "updatedAt" : { "$date" : "2014-04-23T20:32:20.051+0000" }, "createdAt" : { "$date" : "2014-04-23T20:32:20.051+0000" }, "__v" : 0 }
{ "_id" : { "$oid" : "53582354c23e11b3b4bf668f" }, "name" : "College Point Boulevard", "uuid" : "5709782", "active" : true, "coordinates" : [ -73.83578900000001, 40.7444468 ], "properties" : { "sector" : "education", "type" : "early childhood", "visits" : 4, "photoUrls" : [] }, "updatedAt" : { "$date" : "2014-04-23T20:32:20.052+0000" }, "createdAt" : { "$date" : "2014-04-23T20:32:20.052+0000" }, "__v" : 0 }
{ "_id" : { "$oid" : "53582354c23e11b3b4bf6690" }, "name" : "College Point Boulevard", "uuid" : "216942805", "active" : true, "coordinates" : [ -73.8371855, 40.7433416 ], "properties" : { "sector" : "education", "type" : "early childhood", "visits" : 4, "photoUrls" : [] }, "updatedAt" : { "$date" : "2014-04-23T20:32:20.052+0000" }, "createdAt" : { "$date" : "2014-04-23T20:32:20.052+0000" }, "__v" : 0 }
{ "_id" : { "$oid" : "53582354c23e11b3b4bf6691" }, "name" : "College Point Blvd", "uuid" : "25154693", "active" : true, "coordinates" : [ -73.84576, 40.785399 ], "properties" : { "sector" : "education", "type" : "early childhood", "visits" : 0, "photoUrls" : [] }, "updatedAt" : { "$date" : "2014-04-23T20:32:20.052+0000" }, "createdAt" : { "$date" : "2014-04-23T20:32:20.052+0000" }, "__v" : 0 }
{ "_id" : { "$oid" : "53582354c23e11b3b4bf6692" }, "name" : "College Point Boulevard", "uuid" : "216942800", "active" : true, "coordinates" : [ -73.832295, 40.751942 ], "properties" : { "sector" : "education", "type" : "early childhood", "visits" : 2, "photoUrls" : [] }, "updatedAt" : { "$date" : "2014-04-23T20:32:20.052+0000" }, "createdAt" : { "$date" : "2014-04-23T20:32:20.052+0000" }, "__v" : 0 }
{ "_id" : { "$oid" : "53582354c23e11b3b4bf6693" }, "name" : "College Point Boulevard", "uuid" : "5709781", "active" : true, "coordinates" : [ -73.841731, 40.769334 ], "properties" : { "sector" : "education", "type" : "early childhood", "visits" : 3, "photoUrls" : [] }, "updatedAt" : { "$date" : "2014-04-23T20:32:20.053+0000" }, "createdAt" : { "$date" : "2014-04-23T20:32:20.053+0000" }, "__v" : 0 }
{ "_id" : { "$oid" : "53582354c23e11b3b4bf6694" }, "name" : "College Point Boulevard", "uuid" : "5709779", "active" : true, "coordinates" : [ -73.8336621, 40.7477412 ], "properties" : { "sector" : "education", "type" : "early childhood", "visits" : 0, "photoUrls" : [] }, "updatedAt" : { "$date" : "2014-04-23T20:32:20.053+0000" }, "createdAt" : { "$date" : "2014-04-23T20:32:20.053+0000" }, "__v" : 0 }
{ "_id" : { "$oid" : "53582354c23e11b3b4bf6695" }, "name" : "College Point Boulevard", "uuid" : "46869117", "active" : true, "coordinates" : [ -73.845737, 40.786 ], "properties" : { "sector" : "education", "type" : "early childhood", "visits" : 0, "photoUrls" : [] }, "updatedAt" : { "$date" : "2014-04-23T20:32:20.053+0000" }, "createdAt" : { "$date" : "2014-04-23T20:32:20.053+0000" }, "__v" : 0 }
{ "_id" : { "$oid" : "53582354c23e11b3b4bf6696" }, "name" : "Manhattan College Parkway", "uuid" : "132500879", "active" : true, "coordinates" : [ -73.90135909999999, 40.8889626 ], "properties" : { "sector" : "education", "type" : "early childhood", "visits" : 5, "photoUrls" : [] }, "updatedAt" : { "$date" : "2014-04-23T20:32:20.053+0000" }, "createdAt" : { "$date" : "2014-04-23T20:32:20.053+0000" }, "__v" : 0 }
{ "_id" : { "$oid" : "53582354c23e11b3b4bf6697" }, "name" : "College Place", "uuid" : "276150610", "active" : true, "coordinates" : [ -73.847497, 40.790897 ], "properties" : { "sector" : "education", "type" : "early childhood", "visits" : 8, "photoUrls" : [] }, "updatedAt" : { "$date" : "2014-04-23T20:32:20.053+0000" }, "createdAt" : { "$date" : "2014-04-23T20:32:20.053+0000" }, "__v" : 0 }
{ "_id" : { "$oid" : "53582354c23e11b3b4bf6698" }, "name" : "College Place", "uuid" : "5716723", "active" : true, "coordinates" : [ -74.108941, 40.5929249 ], "properties" : { "sector" : "education", "type" : "early childhood", "visits" : 6, "photoUrls" : [] }, "updatedAt" : { "$date" : "2014-04-23T20:32:20.054+0000" }, "createdAt" : { "$date" : "2014-04-23T20:32:20.054+0000" }, "__v" : 0 }
{ "_id" : { "$oid" : "53582354c23e11b3b4bf6699" }, "name" : "College Place", "uuid" : "5681578", "active" : true, "coordinates" : [ -73.9940979, 40.697015 ], "properties" : { "sector" : "education", "type" : "early childhood", "visits" : 5, "photoUrls" : [] }, "updatedAt" : { "$date" : "2014-04-23T20:32:20.054+0000" }, "createdAt" : { "$date" : "2014-04-23T20:32:20.054+0000" }, "__v" : 0 }
{ "_id" : { "$oid" : "53582354c23e11b3b4bf669a" }, "name" : "College Avenue", "uuid" : "5714236", "active" : true, "coordinates" : [ -74.120773, 40.622292 ], "properties" : { "sector" : "education", "type" : "early childhood", "visits" : 9, "photoUrls" : [] }, "updatedAt" : { "$date" : "2014-04-23T20:32:20.054+0000" }, "createdAt" : { "$date" : "2014-04-23T20:32:20.054+0000" }, "__v" : 0 }
{ "_id" : { "$oid" : "53582354c23e11b3b4bf669b" }, "name" : "College Avenue", "uuid" : "5697943", "active" : true, "coordinates" : [ -73.91300099999999, 40.833409 ], "properties" : { "sector" : "education", "type" : "early childhood", "visits" : 2, "photoUrls" : [] }, "updatedAt" : { "$date" : "2014-05-27T20:05:52.000+0000" }, "createdAt" : { "$date" : "2014-04-23T20:32:20.054+0000" }, "__v" : 0 }
{ "_id" : { "$oid" : "53582354c23e11b3b4bf669c" }, "name" : "Mercy College Place", "uuid" : "5696429", "active" : true, "coordinates" : [ -73.864893, 40.851531 ], "properties" : { "sector" : "education", "type" : "early childhood", "visits" : 4, "photoUrls" : [] }, "updatedAt" : { "$date" : "2014-04-23T20:32:20.054+0000" }, "createdAt" : { "$date" : "2014-04-23T20:32:20.054+0000" }, "__v" : 0 }
{ "_id" : { "$oid" : "53582354c23e11b3b4bf669d" }, "name" : "Manhattan College Parkway", "uuid" : "144459401", "active" : true, "coordinates" : [ -73.90740099999999, 40.890811 ], "properties" : { "sector" : "education", "type" : "early childhood", "visits" : 4, "photoUrls" : [] }, "updatedAt" : { "$date" : "2014-04-23T20:32:20.054+0000" }, "createdAt" : { "$date" : "2014-04-23T20:32:20.054+0000" }, "__v" : 0 }
{ "_id" : { "$oid" : "53582354c23e11b3b4bf669e" }, "name" : "Kings College Place", "uuid" : "5698014", "active" : true, "coordinates" : [ -73.875956, 40.879865 ], "properties" : { "sector" : "education", "type" : "early childhood", "visits" : 8, "photoUrls" : [] }, "updatedAt" : { "$date" : "2014-04-23T20:32:20.054+0000" }, "createdAt" : { "$date" : "2014-04-23T20:32:20.054+0000" }, "__v" : 0 }
{ "_id" : { "$oid" : "53582354c23e11b3b4bf669f" }, "name" : "College Court", "uuid" : "5714252", "active" : true, "coordinates" : [ -74.145133, 40.6211292 ], "properties" : { "sector" : "education", "type" : "early childhood", "visits" : 4, "photoUrls" : [] }, "updatedAt" : { "$date" : "2014-04-23T20:32:20.055+0000" }, "createdAt" : { "$date" : "2014-04-23T20:32:20.054+0000" }, "__v" : 0 }
{ "_id" : { "$oid" : "53582354c23e11b3b4bf66a0" }, "name" : "College Road", "uuid" : "5696703", "active" : true, "coordinates" : [ -73.9040026, 40.9124287 ], "properties" : { "sector" : "education", "type" : "early childhood", "visits" : 6, "photoUrls" : [] }, "updatedAt" : { "$date" : "2014-04-23T20:32:20.055+0000" }, "createdAt" : { "$date" : "2014-04-23T20:32:20.055+0000" }, "__v" : 0 }
{ "_id" : { "$oid" : "53582354c23e11b3b4bf66a1" }, "name" : "College Avenue", "uuid" : "5697941", "active" : true, "coordinates" : [ -73.91595700000001, 40.82735 ], "properties" : { "sector" : "education", "type" : "early childhood", "visits" : 5, "photoUrls" : [] }, "updatedAt" : { "$date" : "2014-04-23T20:32:20.055+0000" }, "createdAt" : { "$date" : "2014-04-23T20:32:20.055+0000" }, "__v" : 0 }
{ "_id" : { "$oid" : "53582354c23e11b3b4bf66a2" }, "name" : "College Road", "uuid" : "162614309", "active" : true, "coordinates" : [ -73.9035097, 40.9127 ], "properties" : { "sector" : "education", "type" : "early childhood", "visits" : 4, "photoUrls" : [] }, "updatedAt" : { "$date" : "2014-04-23T20:32:20.055+0000" }, "createdAt" : { "$date" : "2014-04-23T20:32:20.055+0000" }, "__v" : 0 }
{ "_id" : { "$oid" : "53582354c23e11b3b4bf66a3" }, "name" : "New York City College of Technology", "uuid" : "250369747", "active" : true, "coordinates" : [ -73.98646723658091, 40.6954664 ], "properties" : { "sector" : "education", "type" : "early childhood", "visits" : 4, "photoUrls" : [] }, "updatedAt" : { "$date" : "2014-04-23T20:32:20.055+0000" }, "createdAt" : { "$date" : "2014-04-23T20:32:20.055+0000" }, "__v" : 0 }
{ "_id" : { "$oid" : "53582354c23e11b3b4bf66a4" }, "name" : "New York City College of Technology", "uuid" : "241846074", "active" : true, "coordinates" : [ -73.9877405073445, 40.6954966 ], "properties" : { "sector" : "education", "type" : "early childhood", "visits" : 2, "photoUrls" : [] }, "updatedAt" : { "$date" : "2014-04-23T20:32:20.056+0000" }, "createdAt" : { "$date" : "2014-04-23T20:32:20.056+0000" }, "__v" : 0 }
{ "_id" : { "$oid" : "53582354c23e11b3b4bf66a5" }, "name" : "Marymount Manhattan College", "uuid" : "1170450915", "active" : true, "coordinates" : [ -73.95975559999999, 40.7687028 ], "properties" : { "sector" : "education", "type" : "early childhood", "visits" : 1, "photoUrls" : [] }, "updatedAt" : { "$date" : "2014-04-23T20:32:20.056+0000" }, "createdAt" : { "$date" : "2014-04-23T20:32:20.056+0000" }, "__v" : 0 }
{ "_id" : { "$oid" : "537385b8499ef0103ff7f1e8" }, "name" : "Testing", "uuid" : "-1", "updatedAt" : { "$date" : "2014-05-14T15:03:20.232+0000" }, "createdAt" : { "$date" : "2014-05-14T15:03:20.231+0000" }, "__v" : 0, "properties" : { "visits" : 2, "photoUrls" : [] } }
{ "_id" : { "$oid" : "537390d92eb139f9417b847e" }, "name" : "Testing", "uuid" : "-1", "updatedAt" : { "$date" : "2014-05-14T15:50:49.091+0000" }, "createdAt" : { "$date" : "2014-05-14T15:50:49.091+0000" }, "__v" : 0, "properties" : { "visits" : 2, "photoUrls" : [] } }
{ "_id" : { "$oid" : "5373955ce967eb8842e0ced8" }, "name" : "Home", "uuid" : "-1", "coordinates" : [ -73.92519999999999, 40.74061833333334 ], "properties" : { "sector" : "health", "type" : "water", "visits" : 1, "photoUrls" : [] }, "updatedAt" : { "$date" : "2014-05-28T00:31:32.000+0000" }, "createdAt" : { "$date" : "2014-05-14T16:10:04.875+0000" }, "__v" : 0, "active" : false }
{ "_id" : { "$oid" : "5373c624a19e20b3424df919" }, "name" : "Sunnyside Jewish Center", "uuid" : "-1", "active" : false, "coordinates" : [ -73.92393299999999, 40.741493 ], "properties" : { "sector" : "health", "type" : "faith-based services", "visits" : 0, "photoUrls" : [] }, "updatedAt" : { "$date" : "2014-05-14T19:38:12.373+0000" }, "createdAt" : { "$date" : "2014-05-14T19:38:12.373+0000" }, "__v" : 0 }
{ "_id" : { "$oid" : "5373c73da19e20b3424df91a" }, "name" : "Public School 199", "uuid" : "-1", "active" : false, "coordinates" : [ -73.927441, 40.739961 ], "properties" : { "sector" : "health", "type" : "primary school", "visits" : 0, "photoUrls" : [] }, "updatedAt" : { "$date" : "2014-05-14T19:42:53.632+0000" }, "createdAt" : { "$date" : "2014-05-14T19:42:53.632+0000" }, "__v" : 0 }
{ "_id" : { "$oid" : "5373c81aa19e20b3424df91b" }, "name" : "Saint Teresa's Roman Catholic Church", "uuid" : "-1", "active" : false, "coordinates" : [ -73.921358, 40.737331 ], "properties" : { "sector" : "health", "type" : "faith-based services", "visits" : 0, "photoUrls" : [] }, "updatedAt" : { "$date" : "2014-05-14T19:46:34.619+0000" }, "createdAt" : { "$date" : "2014-05-14T19:46:34.619+0000" }, "__v" : 0 }
{ "_id" : { "$oid" : "5373cd1ea19e20b3424df91c" }, "name" : "Intermediate School 125", "uuid" : "-1", "active" : false, "coordinates" : [ -73.91925499999999, 40.740949 ], "properties" : { "sector" : "health", "type" : "intermediate school", "visits" : 0, "photoUrls" : [] }, "updatedAt" : { "$date" : "2014-05-14T20:07:58.571+0000" }, "createdAt" : { "$date" : "2014-05-14T20:07:58.570+0000" }, "__v" : 0 }
{ "_id" : { "$oid" : "5373cd79a19e20b3424df91d" }, "name" : "Public School 150", "uuid" : "-1", "active" : false, "coordinates" : [ -73.923547, 40.745858 ], "properties" : { "sector" : "health", "type" : "public primary school", "visits" : 0, "photoUrls" : [] }, "updatedAt" : { "$date" : "2014-05-14T20:09:29.970+0000" }, "createdAt" : { "$date" : "2014-05-14T20:09:29.970+0000" }, "__v" : 0 }
{ "_id" : { "$oid" : "5373d55aa19e20b3424df91e" }, "name" : "Queens Vocational High School", "uuid" : "-1", "active" : false, "coordinates" : [ -73.92795099999999, 40.741859 ], "properties" : { "sector" : "health", "type" : "secondary school", "visits" : 1, "photoUrls" : [] }, "updatedAt" : { "$date" : "2014-05-28T00:33:53.000+0000" }, "createdAt" : { "$date" : "2014-05-14T20:43:06.228+0000" }, "__v" : 0 }
{ "_id" : { "$oid" : "5373f987a19e20b3424df91f" }, "name" : "Aviation High School", "uuid" : "-1", "active" : false, "coordinates" : [ -73.929405, 40.743444 ], "properties" : { "sector" : "health", "type" : "secondary education", "visits" : 0, "photoUrls" : [] }, "updatedAt" : { "$date" : "2014-05-14T23:17:27.170+0000" }, "createdAt" : { "$date" : "2014-05-14T23:17:27.170+0000" }, "__v" : 0 }
{ "_id" : { "$oid" : "5374e807a19e20b3424df920" }, "name" : "Some School", "uuid" : "-1", "active" : false, "coordinates" : [ -73.945257, 40.742197 ], "properties" : { "sector" : "health", "type" : "primary school", "visits" : 1, "photoUrls" : [] }, "updatedAt" : { "$date" : "2014-05-28T00:31:47.000+0000" }, "createdAt" : { "$date" : "2014-05-15T16:15:03.058+0000" }, "__v" : 0 }
{ "_id" : { "$oid" : "53774587a19e20b3424df921" }, "name" : "Notion Studio", "uuid" : "-1", "active" : false, "coordinates" : [ -73.95022899999999, 40.730356 ], "properties" : { "sector" : "health", "type" : "art education", "visits" : 0, "photoUrls" : [] }, "updatedAt" : { "$date" : "2014-05-17T11:18:31.680+0000" }, "createdAt" : { "$date" : "2014-05-17T11:18:31.680+0000" }, "__v" : 0 }
{ "_id" : { "$oid" : "5377a4c0a19e20b3424df922" }, "name" : "Key Food", "uuid" : "-1", "active" : false, "coordinates" : [ -73.950895, 40.729958 ], "properties" : { "sector" : "health", "type" : "food dispensary", "visits" : 0, "photoUrls" : [] }, "updatedAt" : { "$date" : "2014-05-17T18:04:48.029+0000" }, "createdAt" : { "$date" : "2014-05-17T18:04:48.029+0000" }, "__v" : 0 }
{ "_id" : { "$oid" : "537b721aa19e20b3424df923" }, "name" : "Teachers College", "uuid" : "-1", "active" : false, "coordinates" : [ -73.960314, 40.810203 ], "properties" : { "sector" : "health", "type" : "college", "visits" : 24, "photoUrls" : [] }, "updatedAt" : { "$date" : "2014-08-14T15:20:19.000+0000" }, "createdAt" : { "$date" : "2014-05-20T15:17:46.295+0000" }, "__v" : 1 }
{ "_id" : { "$oid" : "537bc43cd583c2606e2f52df" }, "name" : "Soul Saving Station", "uuid" : "-1", "active" : false, "coordinates" : [ -73.95206399999999, 40.809521 ], "properties" : { "sector" : "health", "type" : "faith-based school", "visits" : 2, "photoUrls" : [] }, "updatedAt" : { "$date" : "2014-07-16T19:38:26.000+0000" }, "createdAt" : { "$date" : "2014-05-20T21:08:12.454+0000" }, "__v" : 0 }
{ "_id" : { "$oid" : "537e44edd583c2606e2f52e0" }, "name" : "Space Ghost", "uuid" : "-1", "active" : false, "coordinates" : [ -73.937816, 40.742835 ], "properties" : { "sector" : "health", "type" : "transport center", "visits" : 0, "photoUrls" : [] }, "updatedAt" : { "$date" : "2014-05-22T18:41:49.705+0000" }, "createdAt" : { "$date" : "2014-05-22T18:41:49.705+0000" }, "__v" : 0 }
{ "_id" : { "$oid" : "5384c20fd72e71031d1dd5e8" }, "name" : "Uris Deli", "uuid" : "-1", "active" : false, "coordinates" : [ -73.960905, 40.808888 ], "properties" : { "sector" : "health", "type" : "health", "visits" : 16, "photoUrls" : [] }, "updatedAt" : { "$date" : "2014-08-14T20:59:21.000+0000" }, "createdAt" : { "$date" : "2014-05-27T16:49:19.687+0000" }, "__v" : 1 }
{ "_id" : { "$oid" : "5384cf68d72e71031d1dd5e9" }, "name" : "Saint Luke's Hospital Center", "uuid" : "-1", "active" : false, "coordinates" : [ -73.961682, 40.804986 ], "properties" : { "sector" : "health", "type" : "hospital", "visits" : 5, "photoUrls" : [ "http://23.21.86.131:3000/sites/photos/5384cf68d72e71031d1dd5e9/Site_5384cf68d72e71031d1dd5e9_20140909093602.jpg" ] }, "updatedAt" : { "$date" : "2014-09-09T13:32:42.000+0000" }, "createdAt" : { "$date" : "2014-05-27T17:46:16.846+0000" }, "__v" : 1 }
{ "_id" : { "$oid" : "5384e562d72e71031d1dd5ea" }, "name" : "Appletree Deli", "uuid" : "-1", "active" : false, "coordinates" : [ -73.958845, 40.809416 ], "properties" : { "sector" : "energy", "type" : "food dispensary", "visits" : 12, "photoUrls" : [] }, "updatedAt" : { "$date" : "2014-08-14T21:20:25.000+0000" }, "createdAt" : { "$date" : "2014-05-27T19:20:02.584+0000" }, "__v" : 1 }
{ "_id" : { "$oid" : "5385eef5d72e71031d1dd5ed" }, "name" : "Shapiro Center", "uuid" : "-1", "active" : false, "coordinates" : [ -73.960776, 40.809655 ], "properties" : { "sector" : "water", "type" : "research", "visits" : 12, "photoUrls" : [] }, "updatedAt" : { "$date" : "2014-09-03T20:44:05.000+0000" }, "createdAt" : { "$date" : "2014-05-28T14:13:09.828+0000" }, "__v" : 2 }
{ "_id" : { "$oid" : "5385f175d72e71031d1dd5ee" }, "name" : "Mudd Hall", "uuid" : "-1", "active" : false, "coordinates" : [ -73.960025, 40.809351 ], "properties" : { "sector" : "education", "type" : "research", "visits" : 9, "photoUrls" : [] }, "updatedAt" : { "$date" : "2014-09-03T20:47:56.000+0000" }, "createdAt" : { "$date" : "2014-05-28T14:23:49.041+0000" }, "__v" : 0 }
{ "_id" : { "$oid" : "53861b1ff861db9730aedb8e" }, "name" : "Quiet Lunch Spot", "uuid" : "-1", "active" : false, "coordinates" : [ -73.964005, 40.811308 ], "properties" : { "sector" : "health", "type" : "rest area", "visits" : 5, "photoUrls" : [] }, "updatedAt" : { "$date" : "2014-09-03T21:04:33.000+0000" }, "createdAt" : { "$date" : "2014-05-28T17:21:35.370+0000" }, "__v" : 1 }
{ "_id" : { "$oid" : "53a06a92f861db9730aedb90" }, "name" : "Test", "uuid" : "-1", "active" : false, "coordinates" : [ -73.95801299999999, 40.808595 ], "properties" : { "sector" : "health", "type" : "test", "visits" : 9, "photoUrls" : [] }, "updatedAt" : { "$date" : "2014-09-03T21:00:39.000+0000" }, "createdAt" : { "$date" : "2014-06-17T16:19:30.998+0000" }, "__v" : 0 }
{ "_id" : { "$oid" : "53bd93c2f861db9730aedb92" }, "name" : "Another Hospital", "uuid" : "-1", "active" : false, "coordinates" : [ -73.948888, 40.809635 ], "properties" : { "sector" : "health", "type" : "big", "visits" : 2, "photoUrls" : [] }, "updatedAt" : { "$date" : "2014-07-16T13:39:15.000+0000" }, "createdAt" : { "$date" : "2014-07-09T19:10:58.527+0000" }, "__v" : 0 }
{ "_id" : { "$oid" : "53c3edb7f861db9730aedbb7" }, "name" : "Much Hospital", "uuid" : "3a0c5ae0-0729-449c-aa35-139d5c602daf", "active" : false, "coordinates" : [ -73.953802, 40.809635 ], "properties" : { "sector" : "health", "type" : "such health", "visits" : 3, "photoUrls" : [] }, "updatedAt" : { "$date" : "2014-09-03T19:31:53.000+0000" }, "createdAt" : { "$date" : "2014-07-14T14:48:23.749+0000" }, "__v" : 1 }
{ "_id" : { "$oid" : "53c3f064f861db9730aedbb8" }, "name" : "Some Hospital", "uuid" : "641eb1d8-4461-45c7-acf5-4b78a24e23ef", "active" : false, "coordinates" : [ -73.94712899999999, 40.80809199999999 ], "properties" : { "sector" : "health", "type" : "such health", "visits" : 2, "photoUrls" : [] }, "updatedAt" : { "$date" : "2014-07-14T15:19:16.000+0000" }, "createdAt" : { "$date" : "2014-07-14T14:59:48.870+0000" }, "__v" : 0 }
{ "_id" : { "$oid" : "53c4037cf861db9730aedbba" }, "name" : "The Circle", "uuid" : "60c4eaee-5733-4e5f-904c-c5cec9b7f6b8", "active" : false, "coordinates" : [ -73.957386, 40.809935 ], "properties" : { "sector" : "water", "type" : "unsure", "visits" : 4, "photoUrls" : [] }, "updatedAt" : { "$date" : "2014-09-04T19:22:40.000+0000" }, "createdAt" : { "$date" : "2014-07-14T16:21:16.441+0000" }, "__v" : 2 }
{ "_id" : { "$oid" : "53c40484f861db9730aedbbb" }, "name" : "Dinosaur BBQ", "uuid" : "745762a8-0c62-4dda-aa0d-ef42c1dc9bd3", "active" : false, "coordinates" : [ -73.95948799999999, 40.81631 ], "properties" : { "sector" : "health", "type" : "extreme health", "visits" : 3, "photoUrls" : [] }, "updatedAt" : { "$date" : "2014-07-14T20:18:49.000+0000" }, "createdAt" : { "$date" : "2014-07-14T16:25:40.359+0000" }, "__v" : 0 }
{ "_id" : { "$oid" : "53c819bbf861db9730aedbbc" }, "name" : "Pupin", "uuid" : "8933b32e-ac4f-4afe-b9e2-1ae57bb73500", "active" : false, "coordinates" : [ -73.961741, 40.809822 ], "properties" : { "sector" : "education", "type" : "school", "visits" : 9, "photoUrls" : [ "http://23.21.86.131:3000/sites/photos/53c819bbf861db9730aedbbc/Site_53c819bbf861db9730aedbbc_20140904154956.jpg", "http://23.21.86.131:3000/sites/photos/53c819bbf861db9730aedbbc/Site_53c819bbf861db9730aedbbc_20140904155005.jpg" ] }, "updatedAt" : { "$date" : "2014-09-04T19:46:55.000+0000" }, "createdAt" : { "$date" : "2014-07-17T18:45:15.563+0000" }, "__v" : 6 }
{ "_id" : { "$oid" : "53c81f66ff37d9a92ffc53b4" }, "name" : "Public School 36", "uuid" : "4fdffe4a-0fda-4a93-90d4-703a649b1581", "active" : false, "coordinates" : [ -73.957461, 40.810658 ], "properties" : { "sector" : "education", "type" : "primary school", "visits" : 3, "photoUrls" : [ "http://23.21.86.131:3000/sites/photos/53c81f66ff37d9a92ffc53b4/Site_53c81f66ff37d9a92ffc53b4_20140905134752.jpg" ] }, "updatedAt" : { "$date" : "2014-09-05T17:44:43.000+0000" }, "createdAt" : { "$date" : "2014-07-17T19:09:26.547+0000" }, "__v" : 1 }
{ "_id" : { "$oid" : "53c851eeff37d9a92ffc53b5" }, "name" : "The Library", "uuid" : "d478d0a6-771e-4522-a83d-6cd7af51308f", "active" : false, "coordinates" : [ -73.961924, 40.808141 ], "properties" : { "sector" : "education", "type" : "big", "visits" : 4 }, "updatedAt" : { "$date" : "2014-09-11T19:04:21.000+0000" }, "createdAt" : { "$date" : "2014-07-17T22:45:02.835+0000" }, "__v" : 0 }
{ "_id" : { "$oid" : "53cffeacff37d9a92ffc53b6" }, "name" : "Butler Hall", "uuid" : "431ddb27-fa22-4820-ba5f-7a275abeaaf9", "active" : false, "coordinates" : [ -73.95959599999999, 40.808401 ], "properties" : { "sector" : "education", "type" : "universitu", "visits" : 3, "photoUrls" : [] }, "updatedAt" : { "$date" : "2014-09-03T14:05:30.000+0000" }, "createdAt" : { "$date" : "2014-07-23T18:27:56.694+0000" }, "__v" : 0 }
{ "_id" : { "$oid" : "53d6b2c7ff37d9a92ffc53b7" }, "name" : "SEL", "uuid" : "c13340c7-c6ad-40c3-81b2-a904fe7beed3", "active" : false, "coordinates" : [ -73.959588, 40.809349 ], "properties" : { "sector" : "education", "type" : "research", "visits" : 4, "photoUrls" : [ "http://23.21.86.131:3000/sites/photos/53d6b2c7ff37d9a92ffc53b7/Site_53d6b2c7ff37d9a92ffc53b7_20140911165015.jpg" ] }, "updatedAt" : { "$date" : "2014-09-11T17:47:29.000+0000" }, "createdAt" : { "$date" : "2014-07-28T20:29:59.135+0000" }, "__v" : 1 }
{ "_id" : { "$oid" : "53d90403ff37d9a92ffc53b8" }, "name" : "Something Real", "uuid" : "34b39d00-4700-40fb-b288-bab24b238802", "active" : false, "coordinates" : [ -73.95837299999999, 40.80797 ], "properties" : { "sector" : "energy", "type" : "energy", "visits" : 2, "photoUrls" : [] }, "updatedAt" : { "$date" : "2014-09-03T19:09:34.000+0000" }, "createdAt" : { "$date" : "2014-07-30T14:41:07.860+0000" }, "__v" : 0 }
{ "_id" : { "$oid" : "53d94e20e1df2b796e76b7bb" }, "name" : "Jewish Theological Seminary", "uuid" : "c3ca55fe-baca-429a-89ac-f5431edbb7b3", "active" : false, "coordinates" : [ -73.9601, 40.811998 ], "properties" : { "sector" : "education", "type" : "religious center", "visits" : 1, "photoUrls" : [] }, "updatedAt" : { "$date" : "2014-07-30T19:57:20.178+0000" }, "createdAt" : { "$date" : "2014-07-30T19:57:20.178+0000" }, "__v" : 0 }
{ "_id" : { "$oid" : "53e29a70e1df2b796e76b7bc" }, "name" : "Computer Science", "uuid" : "81d2994c-4171-4b7f-8f05-74930bdf59bd", "active" : false, "coordinates" : [ -73.95993399999999, 40.809054 ], "properties" : { "sector" : "education", "type" : "university", "visits" : 1, "photoUrls" : [] }, "updatedAt" : { "$date" : "2014-08-06T21:13:20.000+0000" }, "createdAt" : { "$date" : "2014-08-06T21:13:20.000+0000" }, "__v" : 0 }
{ "_id" : { "$oid" : "53e38721e1df2b796e76b7bd" }, "name" : "Church Of The Master", "uuid" : "e8e77d84-c94e-40a7-a38c-d3f0b561dc9b", "active" : false, "coordinates" : [ -73.95538999999999, 40.809075 ], "properties" : { "sector" : "energy", "type" : "feel the power", "visits" : 1, "photoUrls" : [] }, "updatedAt" : { "$date" : "2014-08-07T14:03:13.458+0000" }, "createdAt" : { "$date" : "2014-08-07T14:03:13.458+0000" }, "__v" : 0 }
{ "_id" : { "$oid" : "54076bebb113ee5c4ea7dacb" }, "name" : "Butler Library", "uuid" : "08acb67e-3382-4a08-95a1-bc0125b7ccb0", "active" : false, "coordinates" : [ -73.95952299999999, 40.809376 ], "properties" : { "sector" : "education", "type" : "library", "visits" : 1, "photoUrls" : [] }, "updatedAt" : { "$date" : "2014-09-03T19:28:43.996+0000" }, "createdAt" : { "$date" : "2014-09-03T19:28:43.996+0000" }, "__v" : 0 }
{ "_id" : { "$oid" : "54076d0bcabca4894e5f1ef5" }, "name" : "Kent Hall", "uuid" : "87c466f8-d934-41bd-923f-9c0174158259", "active" : false, "coordinates" : [ -73.959529, 40.809369 ], "properties" : { "sector" : "education", "type" : "some type", "visits" : 2 }, "updatedAt" : { "$date" : "2014-09-11T19:04:21.000+0000" }, "createdAt" : { "$date" : "2014-09-03T19:33:31.365+0000" }, "__v" : 0 }
